,institutionsnummer,Karakter,Soc_ref,beliggenhedskommunenr,lat,lon,postnr,student_count,navn,institutionstype2,institutionstype3,coordinates
0,101001,7.5,7.6,101,55.6729159978565,12.575738616700999,1552,497.0,Den Classenske Legatskole,Grundskoler,Folkeskoler,"(55.6729159978565, 12.575738616700999)"
1,101003,8.0,7.8,101,55.69057241088161,12.5862454099148,1350,531.0,Nyboder Skole,Grundskoler,Folkeskoler,"(55.69057241088161, 12.5862454099148)"
2,101005,7.4,7.6,101,55.686493209469496,12.5832427650795,1307,470.0,Sølvgades Skole,Grundskoler,Folkeskoler,"(55.686493209469496, 12.5832427650795)"
3,101007,5.3,5.5,101,55.6902881167035,12.544704464126301,2200,750.0,Nørrebro Park Skole,Grundskoler,Folkeskoler,"(55.6902881167035, 12.544704464126301)"
4,101008,4.2,5.0,101,55.687825641869004,12.550209992394901,2200,599.0,Blågård Skole,Grundskoler,Folkeskoler,"(55.687825641869004, 12.550209992394901)"
5,101011,6.5,7.1,101,55.704386340680706,12.508446326404,2700,811.0,Bellahøj Skole,Grundskoler,Folkeskoler,"(55.704386340680706, 12.508446326404)"
6,101012,6.3,7.0,101,55.704169199945405,12.4947869758271,2700,881.0,Brønshøj Skole,Grundskoler,Folkeskoler,"(55.704169199945405, 12.4947869758271)"
7,101015,6.2,5.7,101,55.6988371703698,12.5272299764227,2400,455.0,Grøndalsvængets Skole,Grundskoler,Folkeskoler,"(55.6988371703698, 12.5272299764227)"
8,101017,6.7,6.8,101,55.7060885641584,12.473761688803698,2700,681.0,Husum Skole,Grundskoler,Folkeskoler,"(55.7060885641584, 12.473761688803698)"
9,101019,8.2,8.0,101,55.690223062739,12.4987635776381,2720,942.0,Katrinedals Skole,Grundskoler,Folkeskoler,"(55.690223062739, 12.4987635776381)"
10,101020,7.9,7.8,101,55.696308780138,12.482887762769302,2720,1038.0,Kirkebjerg Skole,Grundskoler,Folkeskoler,"(55.696308780138, 12.482887762769302)"
11,101021,6.7,6.5,101,55.7095599787281,12.4693256156746,2700,727.0,Korsager Skole,Grundskoler,Folkeskoler,"(55.7095599787281, 12.4693256156746)"
12,101022,6.7,6.5,101,55.697004850485705,12.507010821589802,2720,761.0,Rødkilde Skole,Grundskoler,Folkeskoler,"(55.697004850485705, 12.507010821589802)"
13,101023,5.0,5.5,101,55.7190877977116,12.484466885778401,2700,499.0,Tingbjerg Skole,Grundskoler,Folkeskoler,"(55.7190877977116, 12.484466885778401)"
14,101029,6.0,5.5,101,55.7097800671489,12.533511075824,2400,520.0,Tagensbo Skole,Grundskoler,Folkeskoler,"(55.7097800671489, 12.533511075824)"
15,101030,6.7,6.6,101,55.724450197991295,12.5287620322137,2400,587.0,Holbergskolen,Grundskoler,Folkeskoler,"(55.724450197991295, 12.5287620322137)"
16,101034,5.5,5.3,101,55.699025080831206,12.5495949937569,2200,671.0,Rådmandsgades Skole,Grundskoler,Folkeskoler,"(55.699025080831206, 12.5495949937569)"
17,101035,6.7,7.3,101,55.693185103816205,12.5531439907036,2200,939.0,Guldberg Skole,Grundskoler,Folkeskoler,"(55.693185103816205, 12.5531439907036)"
18,101039,7.5,7.8,101,55.7057827485052,12.5807941283846,2100,418.0,Randersgades Skole,Grundskoler,Folkeskoler,"(55.7057827485052, 12.5807941283846)"
19,101041,7.0,7.3,101,55.71124434353129,12.579208584077598,2100,610.0,Strandvejsskolen,Grundskoler,Folkeskoler,"(55.71124434353129, 12.579208584077598)"
20,101042,6.9,6.8,101,55.7087556166683,12.5788239345057,2100,559.0,Vibenshus Skole,Grundskoler,Folkeskoler,"(55.7087556166683, 12.5788239345057)"
21,101043,7.3,7.5,101,55.692564602145005,12.5775684168944,2100,775.0,Øster Farimagsgades Skole,Grundskoler,Folkeskoler,"(55.692564602145005, 12.5775684168944)"
22,101045,6.9,6.6,101,55.7053610702465,12.5581524982066,2100,439.0,Nørre Fælled Skole,Grundskoler,Folkeskoler,"(55.7053610702465, 12.5581524982066)"
23,101047,8.1,7.9,101,55.674008557273595,12.596668921721498,1422,797.0,Christianshavns Skole,Grundskoler,Folkeskoler,"(55.674008557273595, 12.596668921721498)"
24,101050,6.5,6.2,101,55.6631089602849,12.6088427991237,2300,393.0,Skolen på Amagerbro,Grundskoler,Folkeskoler,"(55.6631089602849, 12.6088427991237)"
25,101052,7.1,7.1,101,55.6467457419843,12.603824731219401,2300,517.0,Højdevangens Skole,Grundskoler,Folkeskoler,"(55.6467457419843, 12.603824731219401)"
26,101053,8.0,7.7,101,55.6532315899916,12.628020114748399,2300,850.0,Skolen ved Sundet,Grundskoler,Folkeskoler,"(55.6532315899916, 12.628020114748399)"
27,101058,7.3,7.1,101,55.664994202965495,12.613406966616399,2300,930.0,Lergravsparkens Skole,Grundskoler,Folkeskoler,"(55.664994202965495, 12.613406966616399)"
28,101059,7.8,7.7,101,55.6629241401929,12.583199412125799,2300,1295.0,Skolen på Islands Brygge,Grundskoler,Folkeskoler,"(55.6629241401929, 12.583199412125799)"
29,101060,7.3,6.6,101,55.655356332401894,12.596598560878999,2300,695.0,Peder Lykke Skolen,Grundskoler,Folkeskoler,"(55.655356332401894, 12.596598560878999)"
30,101062,6.8,6.6,101,55.6578964166001,12.5356498902901,2450,395.0,Bavnehøj Skole,Grundskoler,Folkeskoler,"(55.6578964166001, 12.5356498902901)"
31,101063,6.3,5.6,101,55.6510747055513,12.531610607486801,2450,494.0,Ellebjerg Skole,Grundskoler,Folkeskoler,"(55.6510747055513, 12.531610607486801)"
32,101064,6.4,7.0,101,55.6664515798549,12.5449517678894,1670,890.0,Tove Ditlevsens Skole,Grundskoler,Folkeskoler,"(55.6664515798549, 12.5449517678894)"
33,101069,7.8,7.5,101,55.667596755247494,12.550323216110101,1663,570.0,Oehlenschlægersgades Skole,Grundskoler,Folkeskoler,"(55.667596755247494, 12.550323216110101)"
34,101070,7.8,7.9,101,55.666652912372896,12.486321625850401,2500,553.0,Hanssted Skole,Grundskoler,Folkeskoler,"(55.666652912372896, 12.486321625850401)"
35,101071,5.9,6.3,101,55.649156789376605,12.501983122535801,2500,485.0,Kirsebærhavens Skole,Grundskoler,Folkeskoler,"(55.649156789376605, 12.501983122535801)"
36,101072,7.0,6.7,101,55.6601006734379,12.484063677139199,2500,446.0,Lykkebo Skole,Grundskoler,Folkeskoler,"(55.6601006734379, 12.484063677139199)"
37,101074,6.4,6.6,101,55.6651536990499,12.509108238038301,2500,656.0,Valby Skole,Grundskoler,Folkeskoler,"(55.6651536990499, 12.509108238038301)"
38,101075,6.6,6.7,101,55.661452474609604,12.5080916879191,2500,702.0,Vigerslev Allés Skole,Grundskoler,Folkeskoler,"(55.661452474609604, 12.5080916879191)"
39,101076,5.8,6.5,101,55.6700885940723,12.495058522832698,2500,637.0,Ålholm Skole,Grundskoler,Folkeskoler,"(55.6700885940723, 12.495058522832698)"
40,101078,9.0,8.3,101,55.7222505426711,12.5577468810455,2100,165.0,Carolineskolen,Grundskoler,Friskoler og private grundskoler,"(55.7222505426711, 12.5577468810455)"
41,101079,8.9,8.5,101,55.6732833108904,12.593893093146301,1420,295.0,Christianshavns Døttreskole,Grundskoler,Friskoler og private grundskoler,"(55.6732833108904, 12.593893093146301)"
42,101080,6.9,6.7,101,55.683976258937996,12.5667857706436,1364,262.0,Det Kgl Vaisenhus Skole,Grundskoler,Friskoler og private grundskoler,"(55.683976258937996, 12.5667857706436)"
43,101081,8.4,8.1,101,55.6941915753893,12.582307786777198,2100,796.0,Institut Sankt Joseph,Grundskoler,Friskoler og private grundskoler,"(55.6941915753893, 12.582307786777198)"
44,101082,6.8,7.0,101,55.68824371888821,12.5593533207393,2200,322.0,Sankt Ansgars Skole,Grundskoler,Friskoler og private grundskoler,"(55.68824371888821, 12.5593533207393)"
45,101083,9.3,8.6,101,55.689790970187595,12.5755962794031,2100,394.0,Krebs' Skole,Grundskoler,Friskoler og private grundskoler,"(55.689790970187595, 12.5755962794031)"
46,101084,7.5,7.6,101,55.653833385258295,12.6071414814094,2300,560.0,Sankt Annæ Skole,Grundskoler,Friskoler og private grundskoler,"(55.653833385258295, 12.6071414814094)"
47,101086,8.0,8.1,101,55.6941743205278,12.576322905164199,2100,419.0,Bordings Friskole,Grundskoler,Friskoler og private grundskoler,"(55.6941743205278, 12.576322905164199)"
48,101088,8.6,8.2,101,55.6827235384127,12.569256361673999,1361,455.0,N. Zahles Seminarieskole,Grundskoler,Friskoler og private grundskoler,"(55.6827235384127, 12.569256361673999)"
49,101089,9.5,8.4,101,55.6797379385099,12.569634084038999,1451,601.0,Sankt Petri Skole,Grundskoler,Friskoler og private grundskoler,"(55.6797379385099, 12.569634084038999)"
50,101091,8.1,8.1,101,55.6624030145113,12.6318796858562,2300,197.0,"Hovedstadens Privatskole, Filipskolen",Grundskoler,Friskoler og private grundskoler,"(55.6624030145113, 12.6318796858562)"
51,101092,6.9,7.4,101,55.6513244813005,12.6173567016551,2300,232.0,Amager Lille Skole,Grundskoler,Friskoler og private grundskoler,"(55.6513244813005, 12.6173567016551)"
52,101111,7.4,7.9,101,55.6581068147651,12.5058890928141,2500,459.0,Byens Skole,Grundskoler,Friskoler og private grundskoler,"(55.6581068147651, 12.5058890928141)"
53,101127,8.3,8.3,101,55.6905667947849,12.5757787098614,2100,184.0,Øbro Fri Skole,Grundskoler,Friskoler og private grundskoler,"(55.6905667947849, 12.5757787098614)"
54,101129,7.9,7.6,101,55.6490176110893,12.634056163366198,2300,133.0,Landsbyskolen,Grundskoler,Friskoler og private grundskoler,"(55.6490176110893, 12.634056163366198)"
55,101132,7.3,7.4,101,55.694188850303796,12.551259126975,2200,201.0,Nørrebro Lilleskole,Grundskoler,Friskoler og private grundskoler,"(55.694188850303796, 12.551259126975)"
56,101133,7.5,7.7,101,55.6660022996429,12.5064141973877,2500,199.0,Freinet-Skolen,Grundskoler,Friskoler og private grundskoler,"(55.6660022996429, 12.5064141973877)"
57,101135,9.1,8.5,101,55.682171211756604,12.4880983225825,2720,201.0,Vanløse Privatskole,Grundskoler,Friskoler og private grundskoler,"(55.682171211756604, 12.4880983225825)"
58,101138,6.9,6.5,101,55.7184703801835,12.544362399661301,2100,473.0,Lundehusskolen,Grundskoler,Folkeskoler,"(55.7184703801835, 12.544362399661301)"
59,101140,8.2,8.1,101,55.657277,12.51978288,2500,207.0,Trekronergade Freinetskole,Grundskoler,Friskoler og private grundskoler,"(55.657277, 12.51978288)"
60,101149,7.2,6.6,101,55.69039923,12.56165569,2200,264.0,DIA Privatskole,Grundskoler,Friskoler og private grundskoler,"(55.69039923, 12.56165569)"
61,101151,6.9,6.6,101,55.716494287455504,12.5733199878141,2100,587.0,Kildevældsskolen,Grundskoler,Folkeskoler,"(55.716494287455504, 12.5733199878141)"
62,101152,8.7,8.1,101,55.7213912573883,12.5586640107915,2100,152.0,Bjørns Internationale Skole,Grundskoler,Friskoler og private grundskoler,"(55.7213912573883, 12.5586640107915)"
63,101153,8.5,8.3,101,55.700287411550995,12.5785481531163,2100,671.0,Ingrid Jespersens Gymnasieskole,Grundskoler,Friskoler og private grundskoler,"(55.700287411550995, 12.5785481531163)"
64,101154,8.0,8.1,101,55.70812777276301,12.5670547038203,2100,477.0,Niels Steensens Gymnasium,Grundskoler,Friskoler og private grundskoler,"(55.70812777276301, 12.5670547038203)"
65,101155,9.4,8.4,101,55.682456904809705,12.569828766514402,1358,790.0,N. Zahles Gymnasieskole,Grundskoler,Friskoler og private grundskoler,"(55.682456904809705, 12.569828766514402)"
66,101157,7.3,7.5,101,55.6977329321241,12.577207980257,2100,654.0,Sortedamskolen,Grundskoler,Folkeskoler,"(55.6977329321241, 12.577207980257)"
67,101158,9.0,8.3,101,55.656084053320505,12.5258455390821,2500,583.0,Sankt Annæ Gymnasiums Grundskole,Grundskoler,Folkeskoler,"(55.656084053320505, 12.5258455390821)"
68,101162,5.9,6.0,101,55.6591591982375,12.501859125616699,2500,166.0,Kildeskolen,Grundskoler,Friskoler og private grundskoler,"(55.6591591982375, 12.501859125616699)"
69,101163,7.0,6.6,101,55.648067833665294,12.6347715795188,2300,184.0,Amager's International School,Grundskoler,Friskoler og private grundskoler,"(55.648067833665294, 12.6347715795188)"
70,101169,6.4,6.2,101,55.6961895927436,12.4813493360965,2720,203.0,Jinnah International School,Grundskoler,Friskoler og private grundskoler,"(55.6961895927436, 12.4813493360965)"
71,101170,6.9,7.7,101,55.6925081,12.55873945,2200,145.0,Det Frie Gymnasiums Grundskole,Grundskoler,Friskoler og private grundskoler,"(55.6925081, 12.55873945)"
72,101172,6.2,5.8,101,55.6875406075802,12.4871951099964,2720,208.0,Ahi International School,Grundskoler,Friskoler og private grundskoler,"(55.6875406075802, 12.4871951099964)"
73,101174,6.7,6.9,101,55.662116959338796,12.596477457471002,2300,830.0,Amager Fælled Skole,Grundskoler,Folkeskoler,"(55.662116959338796, 12.596477457471002)"
74,101175,8.0,8.0,101,55.699606211108396,12.586741262849099,2100,986.0,Langelinieskolen,Grundskoler,Folkeskoler,"(55.699606211108396, 12.586741262849099)"
75,101178,5.6,6.1,101,55.702232763199206,12.5358365040029,2400,163.0,Lygten Skole,Grundskoler,Friskoler og private grundskoler,"(55.702232763199206, 12.5358365040029)"
76,101180,7.8,7.3,101,55.6503931524827,12.5224910365209,2450,232.0,Al Hikma Skolen,Grundskoler,Friskoler og private grundskoler,"(55.6503931524827, 12.5224910365209)"
77,101181,6.8,6.3,101,55.649476960703495,12.522663050445,2450,249.0,Hay Skolen,Grundskoler,Friskoler og private grundskoler,"(55.649476960703495, 12.522663050445)"
78,101184,6.0,5.8,101,55.6985444983091,12.5306831759221,2400,207.0,Sjællands Privatskole,Grundskoler,Friskoler og private grundskoler,"(55.6985444983091, 12.5306831759221)"
79,101185,6.7,7.1,101,55.673601795546105,12.556696319725999,1616,135.0,Mariendal Friskole,Grundskoler,Friskoler og private grundskoler,"(55.673601795546105, 12.556696319725999)"
80,101188,8.1,7.6,101,55.6742769940967,12.5593781673688,1610,230.0,Copenhagen City School,Grundskoler,Friskoler og private grundskoler,"(55.6742769940967, 12.5593781673688)"
81,101189,7.4,6.5,101,55.700219411937596,12.5313160036462,2400,277.0,Al-Huda Skolen,Grundskoler,Friskoler og private grundskoler,"(55.700219411937596, 12.5313160036462)"
82,101191,7.4,7.9,101,55.670587132229606,12.5483968790286,1665,294.0,Børneuniversitetet på Vesterbro,Grundskoler,Friskoler og private grundskoler,"(55.670587132229606, 12.5483968790286)"
83,101303,6.2,6.7,101,55.64798298,12.51135312,2450,124.0,Københavns Idrætsefterskole,Efterskoler,Efterskoler,"(55.64798298, 12.51135312)"
84,101516,6.4,6.1,101,55.7058615957497,12.526234665517899,2400,333.0,Al Quds Skole,Grundskoler,Friskoler og private grundskoler,"(55.7058615957497, 12.526234665517899)"
85,101526,5.6,5.7,101,55.7009690047132,12.5360630242783,2400,187.0,Al-Hilal Skolen,Grundskoler,Friskoler og private grundskoler,"(55.7009690047132, 12.5360630242783)"
86,101537,8.6,8.2,101,55.702980383559996,12.5818726356956,2100,513.0,Heibergskolen,Grundskoler,Folkeskoler,"(55.702980383559996, 12.5818726356956)"
87,101540,5.7,6.6,101,55.7112670082224,12.5198615632974,2400,829.0,Utterslev Skole,Grundskoler,Folkeskoler,"(55.7112670082224, 12.5198615632974)"
88,101564,8.4,7.8,101,55.64681357594149,12.635535966308598,2300,50.0,Øresunds Internationale Skole,Grundskoler,Friskoler og private grundskoler,"(55.64681357594149, 12.635535966308598)"
89,101572,7.4,7.4,101,55.665355077993496,12.5405775825191,1762,763.0,Vesterbro Ny Skole,Grundskoler,Folkeskoler,"(55.665355077993496, 12.5405775825191)"
90,101585,8.0,7.8,101,55.653272624971294,12.5894188886489,2300,223.0,Ørestad Friskole,Grundskoler,Friskoler og private grundskoler,"(55.653272624971294, 12.5894188886489)"
91,101586,7.9,7.7,101,55.6701424957163,12.5575471061709,1656,552.0,Gasværksvejens Skole,Grundskoler,Folkeskoler,"(55.6701424957163, 12.5575471061709)"
92,101593,6.8,6.3,101,55.6586888580178,12.503183558078199,2500,175.0,Salix Skole,Grundskoler,Friskoler og private grundskoler,"(55.6586888580178, 12.503183558078199)"
93,147002,7.2,7.4,147,55.68051208955811,12.508862159228402,2000,947.0,Lindevangskolen,Grundskoler,Folkeskoler,"(55.68051208955811, 12.508862159228402)"
94,147006,6.5,7.2,147,55.6746004791887,12.5034642455995,2000,771.0,Søndermarkskolen,Grundskoler,Folkeskoler,"(55.6746004791887, 12.5034642455995)"
95,147007,8.6,8.3,147,55.6911252121039,12.5285771073539,2000,865.0,Skolen på Duevej,Grundskoler,Folkeskoler,"(55.6911252121039, 12.5285771073539)"
96,147008,8.0,7.7,147,55.682698963037005,12.5467685327793,1962,901.0,Skolen ved Bulowsvej,Grundskoler,Folkeskoler,"(55.682698963037005, 12.5467685327793)"
97,147010,8.0,7.9,147,55.6845664304581,12.518391115382302,2000,759.0,Skolen på La Cours Vej,Grundskoler,Folkeskoler,"(55.6845664304581, 12.518391115382302)"
98,147012,7.2,7.5,147,55.68282151345839,12.530571684591902,2000,928.0,Skolen på Nyelandsvej,Grundskoler,Folkeskoler,"(55.68282151345839, 12.530571684591902)"
99,147017,8.7,8.4,147,55.671246721619205,12.5369104563961,1812,239.0,Frederik Barfods Skole,Grundskoler,Friskoler og private grundskoler,"(55.671246721619205, 12.5369104563961)"
100,147018,9.0,8.5,147,55.675851755748994,12.5471771275627,1902,443.0,Kaptajn Johnsens Skole,Grundskoler,Friskoler og private grundskoler,"(55.675851755748994, 12.5471771275627)"
101,147033,8.3,8.1,147,55.681236833428,12.546755236010098,1961,152.0,Jakobskolen,Grundskoler,Friskoler og private grundskoler,"(55.681236833428, 12.546755236010098)"
102,147034,8.8,8.4,147,55.6750414547389,12.5018751828903,2000,693.0,Johannesskolen,Grundskoler,Friskoler og private grundskoler,"(55.6750414547389, 12.5018751828903)"
103,147044,8.3,8.0,147,55.6758807591376,12.5375665568862,1855,944.0,Ny Hollænderskolen,Grundskoler,Folkeskoler,"(55.6758807591376, 12.5375665568862)"
104,147051,6.7,7.4,147,55.6800885506188,12.4980944246467,2000,275.0,Tre Falke Skolen,Grundskoler,Folkeskoler,"(55.6800885506188, 12.4980944246467)"
105,147052,7.5,7.9,147,55.677842916841094,12.552764377293,1911,710.0,Skolen ved Søerne,Grundskoler,Folkeskoler,"(55.677842916841094, 12.552764377293)"
106,151003,6.9,6.7,151,55.7203335714025,12.357771179391198,2750,652.0,Hedegårdsskolen,Grundskoler,Folkeskoler,"(55.7203335714025, 12.357771179391198)"
107,151014,7.9,8.2,151,55.7559919816893,12.3885705257075,2750,257.0,Hareskovens Lilleskole,Grundskoler,Friskoler og private grundskoler,"(55.7559919816893, 12.3885705257075)"
108,151018,7.6,7.7,151,55.755656268291,12.3456160200617,2750,190.0,Ballerup Ny Skole,Grundskoler,Friskoler og private grundskoler,"(55.755656268291, 12.3456160200617)"
109,151021,8.4,8.1,151,55.7290135950334,12.3996855613566,2740,281.0,Thomasskolen,Grundskoler,Friskoler og private grundskoler,"(55.7290135950334, 12.3996855613566)"
110,153018,6.3,6.3,153,55.6611531699036,12.4458384331742,2605,935.0,Brøndbyøster Skole,Grundskoler,Folkeskoler,"(55.6611531699036, 12.4458384331742)"
111,153019,6.1,6.8,153,55.6454844020148,12.412521578141199,2605,1148.0,Brøndbyvester Skole,Grundskoler,Folkeskoler,"(55.6454844020148, 12.412521578141199)"
112,153020,5.4,5.8,153,55.62671577165,12.399406281910998,2660,1031.0,Brøndby Strand Skole,Grundskoler,Folkeskoler,"(55.62671577165, 12.399406281910998)"
113,153300,4.8,5.5,153,55.651100787155,12.416114664517698,2605,87.0,Brøndby Idrætsefterskole,Efterskoler,Efterskoler,"(55.651100787155, 12.416114664517698)"
114,155004,7.9,7.8,155,55.5986481699811,12.6588071242827,2791,721.0,Nordstrandskolen,Grundskoler,Folkeskoler,"(55.5986481699811, 12.6588071242827)"
115,157001,7.8,7.8,157,55.746338784715604,12.5254548613061,2820,751.0,Bakkegårdsskolen,Grundskoler,Folkeskoler,"(55.746338784715604, 12.5254548613061)"
116,157002,8.5,8.3,157,55.732721547659395,12.538941861696,2900,724.0,Dyssegårdsskolen,Grundskoler,Folkeskoler,"(55.732721547659395, 12.538941861696)"
117,157003,8.1,8.0,157,55.74292091139439,12.5472343852408,2820,742.0,Gentofte Skole,Grundskoler,Folkeskoler,"(55.74292091139439, 12.5472343852408)"
118,157005,7.9,8.0,157,55.743843398737106,12.5695996286044,2900,691.0,Maglegårdsskolen,Grundskoler,Folkeskoler,"(55.743843398737106, 12.5695996286044)"
119,157007,7.9,7.8,157,55.735239486886606,12.5221092224845,2870,611.0,Munkegårdsskolen,Grundskoler,Folkeskoler,"(55.735239486886606, 12.5221092224845)"
120,157008,8.8,8.3,157,55.75716845470429,12.5730596968714,2920,787.0,Ordrup Skole,Grundskoler,Folkeskoler,"(55.75716845470429, 12.5730596968714)"
121,157009,8.1,8.2,157,55.7663991369269,12.568533380073301,2920,764.0,Skovgårdsskolen,Grundskoler,Folkeskoler,"(55.7663991369269, 12.568533380073301)"
122,157010,8.1,8.0,157,55.762157472933204,12.5936915236921,2920,636.0,Skovshoved Skole,Grundskoler,Folkeskoler,"(55.762157472933204, 12.5936915236921)"
123,157011,7.6,7.7,157,55.7550860005017,12.5304733848264,2820,631.0,Tjørnegårdsskolen,Grundskoler,Folkeskoler,"(55.7550860005017, 12.5304733848264)"
124,157012,9.2,8.5,157,55.73910769629929,12.5669140263643,2900,516.0,Tranegårdskolen,Grundskoler,Folkeskoler,"(55.73910769629929, 12.5669140263643)"
125,157013,8.2,8.2,157,55.731595591434605,12.572899003906699,2900,588.0,Bernadotteskolen,Grundskoler,Friskoler og private grundskoler,"(55.731595591434605, 12.572899003906699)"
126,157015,8.7,8.4,157,55.7453905190408,12.5222293790523,2820,312.0,Busses Skole,Grundskoler,Friskoler og private grundskoler,"(55.7453905190408, 12.5222293790523)"
127,157018,8.4,8.3,157,55.7306171223294,12.556169768246699,2900,969.0,Rygaards Skole,Grundskoler,Friskoler og private grundskoler,"(55.7306171223294, 12.556169768246699)"
128,157019,8.1,8.1,157,55.7619851557617,12.572465029091498,2920,453.0,Sct. Joseph Søstrenes Skole S/I,Grundskoler,Friskoler og private grundskoler,"(55.7619851557617, 12.572465029091498)"
129,157040,9.2,8.4,157,55.7372635227296,12.543253844680299,2900,830.0,Kildegård Privatskole,Grundskoler,Friskoler og private grundskoler,"(55.7372635227296, 12.543253844680299)"
130,157047,8.2,8.0,157,55.7236650042573,12.581017592425198,2900,624.0,Hellerup Skole,Grundskoler,Folkeskoler,"(55.7236650042573, 12.581017592425198)"
131,159001,7.8,7.8,159,55.758827208452395,12.4607614067399,2880,844.0,Bagsværd Skole,Grundskoler,Folkeskoler,"(55.758827208452395, 12.4607614067399)"
132,159002,7.1,7.4,159,55.741713479950896,12.503414678307399,2860,719.0,Buddinge Skole,Grundskoler,Folkeskoler,"(55.741713479950896, 12.503414678307399)"
133,159004,7.4,7.4,159,55.7240986944238,12.478079623503401,2860,839.0,Enghavegård Skole,Grundskoler,Folkeskoler,"(55.7240986944238, 12.478079623503401)"
134,159005,6.6,7.1,159,55.745215976875,12.4718871081832,2860,806.0,Gladsaxe Skole,Grundskoler,Folkeskoler,"(55.745215976875, 12.4718871081832)"
135,159006,7.2,7.1,159,55.7278027304859,12.496681725799,2860,886.0,Grønnemose Skole,Grundskoler,Folkeskoler,"(55.7278027304859, 12.496681725799)"
136,159008,6.2,6.5,159,55.7238337894305,12.4692452675245,2860,426.0,Mørkhøj Skole,Grundskoler,Folkeskoler,"(55.7238337894305, 12.4692452675245)"
137,159009,8.3,8.2,159,55.7570467409232,12.47499439421,2800,577.0,Stengård Skole,Grundskoler,Folkeskoler,"(55.7570467409232, 12.47499439421)"
138,159010,7.8,7.8,159,55.734704956102895,12.512006236565199,2860,603.0,Søborg Skole,Grundskoler,Folkeskoler,"(55.734704956102895, 12.512006236565199)"
139,159012,7.4,7.3,159,55.750637447633295,12.488731354247902,2860,642.0,Vadgård Skole,Grundskoler,Folkeskoler,"(55.750637447633295, 12.488731354247902)"
140,159013,7.2,6.9,159,55.75815690894879,12.4320118999691,2880,369.0,Skovbrynet skole,Grundskoler,Folkeskoler,"(55.75815690894879, 12.4320118999691)"
141,159015,8.3,8.2,159,55.7559652866213,12.478923456996801,2800,232.0,Den Lille Skole,Grundskoler,Friskoler og private grundskoler,"(55.7559652866213, 12.478923456996801)"
142,159016,7.2,7.6,159,55.7472789654757,12.488778974389698,2860,398.0,Kvikmarkens Privatskole,Grundskoler,Friskoler og private grundskoler,"(55.7472789654757, 12.488778974389698)"
143,159017,6.4,6.8,159,55.7550438739549,12.482933711823799,2800,168.0,Gladsaxe Privatskole,Grundskoler,Friskoler og private grundskoler,"(55.7550438739549, 12.482933711823799)"
144,159018,7.7,7.8,159,55.76653145632171,12.4458813493211,2880,195.0,Bagsværd Friskole (Hanna-Skolen),Grundskoler,Friskoler og private grundskoler,"(55.76653145632171, 12.4458813493211)"
145,159034,8.7,8.3,159,55.7645171589758,12.4513673341681,2880,737.0,Bagsværd Gymnasiums Grundskole,Grundskoler,Friskoler og private grundskoler,"(55.7645171589758, 12.4513673341681)"
147,163001,7.4,7.2,163,55.7325453737241,12.4250623069057,2730,915.0,Lindehøjskolen,Grundskoler,Folkeskoler,"(55.7325453737241, 12.4250623069057)"
148,163004,6.8,6.4,163,55.7231864029724,12.431585685153301,2730,850.0,Herlev byskole,Grundskoler,Folkeskoler,"(55.7231864029724, 12.431585685153301)"
149,163006,6.1,6.3,163,55.742352607168506,12.4252745333986,2730,949.0,Kildegårdskolen,Grundskoler,Folkeskoler,"(55.742352607168506, 12.4252745333986)"
150,163009,8.9,8.2,163,55.7427475227567,12.4124071641936,2730,239.0,Herlev Privatskole,Grundskoler,Friskoler og private grundskoler,"(55.7427475227567, 12.4124071641936)"
151,165001,6.9,7.2,165,55.66943335244739,12.328888885097802,2620,475.0,Egelundskolen,Grundskoler,Folkeskoler,"(55.66943335244739, 12.328888885097802)"
152,165011,8.8,8.2,165,55.6881228188889,12.371353008461499,2620,227.0,Albertslund Lille Skole,Grundskoler,Friskoler og private grundskoler,"(55.6881228188889, 12.371353008461499)"
153,165019,6.1,6.5,165,55.675417655404,12.364225031528498,2620,950.0,Herstedøster Skole,Grundskoler,Folkeskoler,"(55.675417655404, 12.364225031528498)"
154,165020,6.2,6.6,165,55.669517969190906,12.340694335379801,2620,906.0,Herstedvester Skole,Grundskoler,Folkeskoler,"(55.669517969190906, 12.340694335379801)"
155,167001,7.0,6.9,167,55.6311810602445,12.4841329252436,2650,780.0,Dansborgskolen,Grundskoler,Folkeskoler,"(55.6311810602445, 12.4841329252436)"
156,167002,6.7,6.3,167,55.6433114177557,12.468120746085999,2650,593.0,Gungehusskolen,Grundskoler,Folkeskoler,"(55.6433114177557, 12.468120746085999)"
157,167003,7.3,7.4,167,55.66195314,12.47052361,2650,578.0,Holmegårdsskolen,Grundskoler,Folkeskoler,"(55.66195314, 12.47052361)"
158,167004,7.8,7.7,167,55.6204569356775,12.490627071194801,2650,705.0,Langhøjskolen,Grundskoler,Folkeskoler,"(55.6204569356775, 12.490627071194801)"
159,167005,7.0,6.4,167,55.654091625855706,12.4664491882175,2650,508.0,Præstemoseskolen,Grundskoler,Folkeskoler,"(55.654091625855706, 12.4664491882175)"
160,167006,7.6,7.8,167,55.6407471246687,12.4873004457131,2650,779.0,Risbjergskolen,Grundskoler,Folkeskoler,"(55.6407471246687, 12.4873004457131)"
161,167008,6.9,7.0,167,55.6264179955171,12.479995820792,2650,555.0,Engstrandskolen,Grundskoler,Folkeskoler,"(55.6264179955171, 12.479995820792)"
162,167009,7.3,6.8,167,55.632409620407,12.4555847241502,2650,624.0,Avedøre Skole,Grundskoler,Folkeskoler,"(55.632409620407, 12.4555847241502)"
163,167011,6.0,6.0,167,55.6261883451147,12.4640415150324,2650,670.0,Frydenhøjskolen,Grundskoler,Folkeskoler,"(55.6261883451147, 12.4640415150324)"
164,167013,7.6,7.6,167,55.650403946326506,12.4800361797688,2650,250.0,Esajasskolen,Grundskoler,Friskoler og private grundskoler,"(55.650403946326506, 12.4800361797688)"
165,169001,7.5,7.3,169,55.6613364111666,12.179226813380101,2640,520.0,Fløng Skole,Grundskoler,Folkeskoler,"(55.6613364111666, 12.179226813380101)"
167,169007,6.0,6.5,169,55.644704412100104,12.2983253792481,2630,787.0,Borgerskolen,Grundskoler,Folkeskoler,"(55.644704412100104, 12.2983253792481)"
168,169008,6.7,6.8,169,55.642800276464605,12.322269148882699,2630,759.0,Mølleholmskolen,Grundskoler,Folkeskoler,"(55.642800276464605, 12.322269148882699)"
169,169010,7.2,7.3,169,55.681333640808894,12.2471505171396,2630,468.0,Sengeløse Skole,Grundskoler,Folkeskoler,"(55.681333640808894, 12.2471505171396)"
171,169013,6.2,6.1,169,55.6471676528524,12.2163283553483,2640,424.0,Charlotteskolen,Grundskoler,Folkeskoler,"(55.6471676528524, 12.2163283553483)"
172,169016,7.6,7.6,169,55.64813057403521,12.2557299242878,2630,240.0,Skt. Pauls Skole,Grundskoler,Friskoler og private grundskoler,"(55.64813057403521, 12.2557299242878)"
173,169018,8.1,8.0,169,55.6534894010083,12.302798962300198,2630,286.0,Vestegnens Privatskole,Grundskoler,Friskoler og private grundskoler,"(55.6534894010083, 12.302798962300198)"
174,169019,6.6,6.4,169,55.6385292634771,12.2740376906145,2630,670.0,Torstorp Skole,Grundskoler,Folkeskoler,"(55.6385292634771, 12.2740376906145)"
175,173002,8.5,8.1,173,55.765885909970294,12.4915195308937,2800,1027.0,Engelsborgskolen,Grundskoler,Folkeskoler,"(55.765885909970294, 12.4915195308937)"
176,173003,8.7,8.6,173,55.79309166948379,12.479065064925498,2830,726.0,Fuglsanggårdsskolen,Grundskoler,Folkeskoler,"(55.79309166948379, 12.479065064925498)"
177,173004,8.1,8.4,173,55.7858079943163,12.474427505523698,2830,838.0,Hummeltofteskolen,Grundskoler,Folkeskoler,"(55.7858079943163, 12.474427505523698)"
178,173005,8.6,8.3,173,55.79053633570889,12.4930169823819,2830,743.0,Kongevejens Skole,Grundskoler,Folkeskoler,"(55.79053633570889, 12.4930169823819)"
179,173006,6.8,7.4,173,55.774924692853794,12.5094298143762,2800,456.0,Lindegårdsskolen,Grundskoler,Folkeskoler,"(55.774924692853794, 12.5094298143762)"
180,173007,7.4,7.5,173,55.7967505319019,12.522272726338198,2800,502.0,Lundtofte Skole,Grundskoler,Folkeskoler,"(55.7967505319019, 12.522272726338198)"
181,173009,8.2,7.8,173,55.7782554767494,12.5308603523883,2800,660.0,Trongårdsskolen,Grundskoler,Folkeskoler,"(55.7782554767494, 12.5308603523883)"
182,173011,9.5,8.7,173,55.790386949406205,12.459866618744499,2830,1036.0,Virum Skole,Grundskoler,Folkeskoler,"(55.790386949406205, 12.459866618744499)"
183,173012,8.1,8.1,173,55.768956403705,12.4990849669254,2800,178.0,Billums Privatskole,Grundskoler,Friskoler og private grundskoler,"(55.768956403705, 12.4990849669254)"
184,173013,9.2,8.7,173,55.771226492279204,12.502294061565001,2800,481.0,Lyngby Private Skole,Grundskoler,Friskoler og private grundskoler,"(55.771226492279204, 12.502294061565001)"
185,173014,8.6,8.3,173,55.7756237091277,12.506750823609,2800,183.0,Skt. Knud Lavard Skole,Grundskoler,Friskoler og private grundskoler,"(55.7756237091277, 12.506750823609)"
186,173020,7.5,7.7,173,55.7678241333179,12.4930812903411,2800,159.0,Lyngby Friskole,Grundskoler,Friskoler og private grundskoler,"(55.7678241333179, 12.4930812903411)"
187,175001,6.6,6.8,175,55.669363,12.456560000000001,2610,657.0,Hendriksholm Skole,Grundskoler,Folkeskoler,"(55.669363, 12.456560000000001)"
188,175002,6.9,6.9,175,55.7051224785332,12.4436648476479,2610,722.0,Islev Skole,Grundskoler,Folkeskoler,"(55.7051224785332, 12.4436648476479)"
189,175003,6.3,6.9,175,55.688097224225,12.4476098672796,2610,728.0,Nyager Skole,Grundskoler,Folkeskoler,"(55.688097224225, 12.4476098672796)"
190,175004,7.1,7.4,175,55.682372796939,12.4643673649351,2610,632.0,Rødovre Skole,Grundskoler,Folkeskoler,"(55.682372796939, 12.4643673649351)"
191,175006,5.7,5.7,175,55.695131860398504,12.449713648529599,2610,457.0,Tinderhøj Skole,Grundskoler,Folkeskoler,"(55.695131860398504, 12.449713648529599)"
192,175007,7.3,6.8,175,55.676614142095005,12.4505937282251,2610,736.0,Valhøj Skole,Grundskoler,Folkeskoler,"(55.676614142095005, 12.4505937282251)"
194,181002,8.4,8.1,230,55.8160644479777,12.471741824277698,2840,508.0,Ny Holte Skole,Grundskoler,Folkeskoler,"(55.8160644479777, 12.471741824277698)"
195,181003,8.0,7.7,230,55.8138622592114,12.534081131219802,2850,450.0,Nærum Skole,Grundskoler,Folkeskoler,"(55.8138622592114, 12.534081131219802)"
196,181006,9.2,8.7,230,55.8083291992272,12.510815126726198,2840,425.0,Vangeboskolen,Grundskoler,Folkeskoler,"(55.8083291992272, 12.510815126726198)"
197,181007,7.9,8.1,230,55.8521781225607,12.5598752859412,2950,516.0,Vedbæk Skole,Grundskoler,Folkeskoler,"(55.8521781225607, 12.5598752859412)"
198,181008,8.4,8.3,230,55.823953578134095,12.4904386600591,2840,509.0,Skovlyskolen,Grundskoler,Folkeskoler,"(55.823953578134095, 12.4904386600591)"
199,181009,8.0,8.0,230,55.8377556633487,12.526519703717302,2950,955.0,Trørødskolen,Grundskoler,Folkeskoler,"(55.8377556633487, 12.526519703717302)"
200,181010,9.4,8.9,230,55.8214644517978,12.5437881729688,2850,66.0,Nærum Privatskole,Grundskoler,Friskoler og private grundskoler,"(55.8214644517978, 12.5437881729688)"
201,181016,8.8,8.5,230,55.814886611766504,12.4657697076585,2840,742.0,Dronninggårdskolen,Grundskoler,Folkeskoler,"(55.814886611766504, 12.4657697076585)"
202,181017,6.9,7.0,230,55.8061268901861,12.466673359310699,2840,82.0,Rudersdal Lilleskole,Grundskoler,Friskoler og private grundskoler,"(55.8061268901861, 12.466673359310699)"
203,183001,7.2,7.0,183,55.6256224110869,12.2964845751409,2635,249.0,Ishøj Skole,Grundskoler,Folkeskoler,"(55.6256224110869, 12.2964845751409)"
204,183002,5.9,6.5,183,55.614687044057,12.335621579753699,2635,503.0,Vibeholmskolen,Grundskoler,Folkeskoler,"(55.614687044057, 12.335621579753699)"
205,183003,5.6,5.8,183,55.61853366897161,12.3619120594922,2635,470.0,Gildbroskolen,Grundskoler,Folkeskoler,"(55.61853366897161, 12.3619120594922)"
206,183004,6.0,5.7,183,55.60721616692061,12.3451449897703,2635,475.0,Strandgårdskolen,Grundskoler,Folkeskoler,"(55.60721616692061, 12.3451449897703)"
207,183005,5.3,5.5,183,55.6162859469135,12.366308122660598,2635,429.0,Vejlebroskolen,Grundskoler,Folkeskoler,"(55.6162859469135, 12.366308122660598)"
208,183008,8.6,8.0,183,55.6116446620056,12.368852145267198,2635,435.0,Ådalens Privatskole,Grundskoler,Friskoler og private grundskoler,"(55.6116446620056, 12.368852145267198)"
209,185002,7.5,7.1,185,55.635105158230495,12.618887349160001,2770,451.0,Korsvejens Skole,Grundskoler,Folkeskoler,"(55.635105158230495, 12.618887349160001)"
210,185003,7.7,7.4,185,55.623268347554706,12.619986648834601,2770,753.0,Løjtegårdsskolen,Grundskoler,Folkeskoler,"(55.623268347554706, 12.619986648834601)"
211,185004,6.8,6.5,185,55.63701138069101,12.601612776243698,2770,432.0,Nordregårdsskolen,Grundskoler,Folkeskoler,"(55.63701138069101, 12.601612776243698)"
212,185005,6.9,7.0,185,55.62138200315621,12.5967173289874,2770,1121.0,Pilegårdsskolen,Grundskoler,Folkeskoler,"(55.62138200315621, 12.5967173289874)"
213,185006,7.2,7.1,185,55.604499673661394,12.586781424669399,2770,874.0,Skelgårdsskolen,Grundskoler,Folkeskoler,"(55.604499673661394, 12.586781424669399)"
214,185010,6.8,6.8,185,55.6328091303368,12.6260601213223,2770,702.0,Kastrupgårdsskolen,Grundskoler,Folkeskoler,"(55.6328091303368, 12.6260601213223)"
215,185013,6.8,7.0,185,55.625203943280106,12.599754924423802,2770,224.0,Amager Privatskole,Grundskoler,Friskoler og private grundskoler,"(55.625203943280106, 12.599754924423802)"
216,185014,7.1,6.5,185,55.6378386213013,12.638251060401402,2770,478.0,Skottegårdsskolen,Grundskoler,Folkeskoler,"(55.6378386213013, 12.638251060401402)"
217,187001,6.3,6.8,187,55.6209247902746,12.3897490693788,2665,860.0,Egholmskolen,Grundskoler,Folkeskoler,"(55.6209247902746, 12.3897490693788)"
218,187002,7.2,7.3,187,55.6502420411216,12.359148053235,2625,758.0,Pilehaveskolen,Grundskoler,Folkeskoler,"(55.6502420411216, 12.359148053235)"
219,187003,6.5,6.7,187,55.6321440641374,12.369243919806198,2625,526.0,Vallensbæk Skole,Grundskoler,Folkeskoler,"(55.6321440641374, 12.369243919806198)"
220,187005,8.4,7.8,187,55.624224386390495,12.396763948675199,2665,177.0,Gideonskolen,Grundskoler,Friskoler og private grundskoler,"(55.624224386390495, 12.396763948675199)"
221,189001,8.3,8.2,190,55.765034876975,12.403371520845198,3500,739.0,Hareskov Skole,Grundskoler,Folkeskoler,"(55.765034876975, 12.403371520845198)"
222,189002,7.5,7.5,190,55.7860705371838,12.369589898348,3500,530.0,Lille Værløse Skole,Grundskoler,Folkeskoler,"(55.7860705371838, 12.369589898348)"
223,189003,8.5,8.1,190,55.7826860056378,12.353494330620899,3500,920.0,Søndersøskolen,Grundskoler,Folkeskoler,"(55.7826860056378, 12.353494330620899)"
224,189004,7.8,8.1,190,55.7782241894069,12.381051832370698,3500,709.0,Syvstjerneskolen,Grundskoler,Folkeskoler,"(55.7782241894069, 12.381051832370698)"
225,190001,6.4,6.5,219,55.930595450694504,12.2975305000655,3400,96.0,Hillerød Privatskole,Grundskoler,Friskoler og private grundskoler,"(55.930595450694504, 12.2975305000655)"
226,190003,6.4,6.6,190,55.8224157891602,12.3892277895059,3520,647.0,Lyngholmskolen,Grundskoler,Folkeskoler,"(55.8224157891602, 12.3892277895059)"
227,201001,8.3,7.9,201,55.866247191515704,12.3863302578877,3450,353.0,Blovstrød Skole,Grundskoler,Folkeskoler,"(55.866247191515704, 12.3863302578877)"
228,201002,7.8,7.6,201,55.8434201195821,12.284686726348,3540,675.0,Lynge Skole,Grundskoler,Folkeskoler,"(55.8434201195821, 12.284686726348)"
229,205001,8.5,8.2,230,55.852706044851395,12.450408735802,3460,699.0,Sjælsøskolen,Grundskoler,Folkeskoler,"(55.852706044851395, 12.450408735802)"
230,205002,7.5,7.7,230,55.8291446931456,12.4283869953438,3460,460.0,Bistrupskolen,Grundskoler,Folkeskoler,"(55.8291446931456, 12.4283869953438)"
231,205005,7.6,7.9,230,55.8401856693877,12.431764906696902,3460,510.0,Toftevangskolen,Grundskoler,Folkeskoler,"(55.8401856693877, 12.431764906696902)"
232,205006,9.1,8.8,230,55.8432601498561,12.4289861275074,3460,384.0,Birkerød Privatskole,Grundskoler,Friskoler og private grundskoler,"(55.8432601498561, 12.4289861275074)"
233,207002,7.6,7.9,190,55.8129621582022,12.3566508298854,3520,722.0,Solvangskolen,Grundskoler,Folkeskoler,"(55.8129621582022, 12.3566508298854)"
234,207003,6.3,6.9,190,55.814996755558205,12.3944648780939,3520,647.0,Stavnsholtskolen,Grundskoler,Folkeskoler,"(55.814996755558205, 12.3944648780939)"
235,207007,9.0,8.4,190,55.813729272850196,12.387116050274502,3520,739.0,Marie Kruses Skole,Grundskoler,Friskoler og private grundskoler,"(55.813729272850196, 12.387116050274502)"
236,208005,8.7,8.4,210,55.96496119672751,12.518125780634902,3050,186.0,Humlebæk Lille Skole,Grundskoler,Friskoler og private grundskoler,"(55.96496119672751, 12.518125780634902)"
237,208007,8.7,8.2,210,55.985455883297604,12.4058759159236,3480,505.0,Endrupskolen,Grundskoler,Folkeskoler,"(55.985455883297604, 12.4058759159236)"
238,208008,7.4,7.6,210,55.96264832163939,12.5041567919962,3050,458.0,Langebjergskolen,Grundskoler,Folkeskoler,"(55.96264832163939, 12.5041567919962)"
239,208009,5.5,5.6,210,55.9760021272264,12.3875561128535,3480,33.0,Skolen på Slotsvænget,Grundskoler,Friskoler og private grundskoler,"(55.9760021272264, 12.3875561128535)"
240,209005,8.0,7.7,250,55.8406721468905,12.0631885494675,3600,743.0,Frederikssund Private Realskole,Grundskoler,Friskoler og private grundskoler,"(55.8406721468905, 12.0631885494675)"
241,211004,6.8,7.0,260,55.9942145167458,11.9680085740424,3370,463.0,"Frederiksværk Skole, Melby",Grundskoler,Folkeskoler,"(55.9942145167458, 11.9680085740424)"
242,211009,6.0,6.3,260,55.9625138930549,12.026209638085898,3300,862.0,Arresø Skole,Grundskoler,Folkeskoler,"(55.9625138930549, 12.026209638085898)"
243,213005,4.0,4.4,270,56.111002259615496,12.223924414563902,3250,46.0,Havregården Lille-Kost og Dagskole,Grundskoler,Friskoler og private grundskoler,"(56.111002259615496, 12.223924414563902)"
244,213007,7.6,7.7,270,56.087629007101,12.322169940555401,3250,242.0,Søborg Privatskole,Grundskoler,Friskoler og private grundskoler,"(56.087629007101, 12.322169940555401)"
245,213008,7.4,7.2,270,56.0966209666508,12.2678118964091,3230,198.0,Alme Kristne Friskole,Grundskoler,Friskoler og private grundskoler,"(56.0966209666508, 12.2678118964091)"
246,213010,4.6,5.3,270,56.0492799485129,12.3781923476927,3230,45.0,Esrum Kostskole,Grundskoler,Friskoler og private grundskoler,"(56.0492799485129, 12.3781923476927)"
247,215001,6.8,7.2,270,55.9979338837529,12.1840338064059,3200,486.0,Bjørnehøjskolen,Grundskoler,Folkeskoler,"(55.9979338837529, 12.1840338064059)"
248,215007,8.8,7.8,270,56.0259794675846,12.2010450174806,3200,901.0,Helsinge Realskole,Grundskoler,Friskoler og private grundskoler,"(56.0259794675846, 12.2010450174806)"
249,215008,7.4,7.4,270,56.0080555500597,12.2616196880254,3200,101.0,Gribskov Skole,Grundskoler,Friskoler og private grundskoler,"(56.0080555500597, 12.2616196880254)"
250,215300,6.2,6.8,270,56.0587554348326,12.2299759452946,3200,103.0,Nordsjællands Efterskole,Efterskoler,Efterskoler,"(56.0587554348326, 12.2299759452946)"
251,215301,7.3,7.2,270,56.072239083197296,12.166947496837,3210,114.0,Gribskov Efterskole,Efterskoler,Efterskoler,"(56.072239083197296, 12.166947496837)"
252,217002,7.4,7.4,217,56.072942047192605,12.5491540138872,3140,701.0,Hellebækskolen,Grundskoler,Folkeskoler,"(56.072942047192605, 12.5491540138872)"
253,217003,6.9,6.9,217,56.088125,12.459857000000001,3100,459.0,Hornbæk Skole,Grundskoler,Folkeskoler,"(56.088125, 12.459857000000001)"
254,217029,6.1,6.1,217,56.0229023525076,12.5889543184249,3000,175.0,Al-Irchad Skolen,Grundskoler,Friskoler og private grundskoler,"(56.0229023525076, 12.5889543184249)"
255,217300,6.1,6.5,350,55.653930928201106,11.9391752234302,4000,79.0,Efterskolen Lindenborg,Efterskoler,Efterskoler,"(55.653930928201106, 11.9391752234302)"
256,219002,7.4,7.7,219,55.9287971630404,12.314458463140301,3400,835.0,Frederiksborg Byskole,Grundskoler,Folkeskoler,"(55.9287971630404, 12.314458463140301)"
257,219003,7.4,7.5,219,55.9393871744586,12.2894423967358,3400,653.0,Hillerødsholmskolen,Grundskoler,Folkeskoler,"(55.9393871744586, 12.2894423967358)"
258,219009,7.2,7.5,219,55.8997560319699,12.337848780323501,3400,208.0,Hillerød Lille Skole,Grundskoler,Friskoler og private grundskoler,"(55.8997560319699, 12.337848780323501)"
259,219010,8.1,8.1,219,55.9262452074284,12.307964445201199,3400,500.0,Marie Mørks Skole,Grundskoler,Friskoler og private grundskoler,"(55.9262452074284, 12.307964445201199)"
260,219011,8.1,7.8,219,55.9465858782864,12.3093386253317,3400,437.0,Johannesskolen,Grundskoler,Friskoler og private grundskoler,"(55.9465858782864, 12.3093386253317)"
261,219016,6.8,7.4,219,55.9305098045374,12.2534544024332,3400,57.0,Den Alternative Skole,Grundskoler,Friskoler og private grundskoler,"(55.9305098045374, 12.2534544024332)"
262,219022,7.3,7.7,219,55.95226124026179,12.3087050757704,3400,209.0,Kon Tiki - Børnenes Skole,Grundskoler,Friskoler og private grundskoler,"(55.95226124026179, 12.3087050757704)"
263,219030,8.0,7.6,219,55.9511461132265,12.265735480381801,3400,506.0,Sophienborgskolen,Grundskoler,Folkeskoler,"(55.9511461132265, 12.265735480381801)"
264,223001,8.7,8.3,223,55.88011441893661,12.5048000467627,2970,693.0,Hørsholm Skole,Grundskoler,Folkeskoler,"(55.88011441893661, 12.5048000467627)"
265,223002,8.1,8.0,223,55.882912316404294,12.5333753792645,2960,451.0,Rungsted Skole,Grundskoler,Folkeskoler,"(55.882912316404294, 12.5333753792645)"
266,223003,8.1,7.9,223,55.8916189256503,12.4931096513491,2970,575.0,Usserød Skole,Grundskoler,Folkeskoler,"(55.8916189256503, 12.4931096513491)"
267,223004,8.3,7.9,223,55.8948685986119,12.520092219355199,2960,721.0,Vallerødskolen,Grundskoler,Folkeskoler,"(55.8948685986119, 12.520092219355199)"
269,223007,8.2,8.3,223,55.8858095578938,12.511089092297098,2960,188.0,Hørsholm Lille Skole,Grundskoler,Friskoler og private grundskoler,"(55.8858095578938, 12.511089092297098)"
270,223300,7.5,7.8,223,55.88086639871779,12.4488326348157,2970,156.0,Sportsefterskolen Sjælsølund,Efterskoler,Efterskoler,"(55.88086639871779, 12.4488326348157)"
272,231005,7.8,7.8,219,55.884382632995994,12.1305758131814,3600,288.0,Sigerslevøster Privatskole,Grundskoler,Friskoler og private grundskoler,"(55.884382632995994, 12.1305758131814)"
273,235006,8.6,8.2,240,55.77560011002979,12.197337100247701,3660,606.0,Stenløse Privatskole,Grundskoler,Friskoler og private grundskoler,"(55.77560011002979, 12.197337100247701)"
274,250004,6.7,6.7,250,55.84144944167979,11.987880961210001,3630,557.0,Jægerspris Skole,Grundskoler,Folkeskoler,"(55.84144944167979, 11.987880961210001)"
275,251001,6.1,6.6,350,55.683955397568,11.847479208852,4070,390.0,Bramsnæsvigskolen,Grundskoler,Folkeskoler,"(55.683955397568, 11.847479208852)"
276,251002,6.4,6.8,350,55.7084220256779,11.898719539068802,4070,460.0,Kirke Hyllinge Skole,Grundskoler,Folkeskoler,"(55.7084220256779, 11.898719539068802)"
277,253001,6.4,6.8,253,55.590875571545105,12.288673533994801,2670,829.0,Hedelyskolen,Grundskoler,Folkeskoler,"(55.590875571545105, 12.288673533994801)"
278,253002,6.7,6.8,253,55.5582370606208,12.2211325816872,2690,406.0,Karlslunde Skole,Grundskoler,Folkeskoler,"(55.5582370606208, 12.2211325816872)"
279,253003,7.2,6.7,253,55.5929536937984,12.321788575063,2670,691.0,Krogårdskolen,Grundskoler,Folkeskoler,"(55.5929536937984, 12.321788575063)"
280,253004,7.4,7.4,253,55.5788854898654,12.2764544592765,2670,740.0,Mosedeskolen,Grundskoler,Folkeskoler,"(55.5788854898654, 12.2764544592765)"
281,253005,7.3,7.3,253,55.562987012803404,12.2520871029442,2690,606.0,Strandskolen,Grundskoler,Folkeskoler,"(55.562987012803404, 12.2520871029442)"
282,253006,6.9,6.8,253,55.5954311132392,12.170019621049398,4030,631.0,Tune Skole,Grundskoler,Folkeskoler,"(55.5954311132392, 12.170019621049398)"
283,253008,5.0,5.3,253,55.5947485567084,12.333067738483601,2670,311.0,Arenaskolen,Grundskoler,Folkeskoler,"(55.5947485567084, 12.333067738483601)"
285,253011,6.6,6.7,253,55.58908229366779,12.2764072579425,2670,483.0,Damagerskolen,Grundskoler,Folkeskoler,"(55.58908229366779, 12.2764072579425)"
287,253015,7.5,7.6,253,55.581291839706104,12.2983072376034,2670,748.0,Holmeagerskolen,Grundskoler,Folkeskoler,"(55.581291839706104, 12.2983072376034)"
288,255001,7.8,7.5,265,55.696343386005296,12.135492800269,4000,357.0,Lindebjergskolen,Grundskoler,Folkeskoler,"(55.696343386005296, 12.135492800269)"
289,255003,7.9,7.8,265,55.7352254420533,12.1301049330131,4000,377.0,Margretheskolen,Grundskoler,Folkeskoler,"(55.7352254420533, 12.1301049330131)"
290,255005,7.4,7.6,265,55.7148651737956,12.1406378506038,4000,237.0,Roskilde Lille Skole,Grundskoler,Friskoler og private grundskoler,"(55.7148651737956, 12.1406378506038)"
291,257001,7.1,7.4,350,55.592431491502,11.856839261915699,4330,611.0,Hvalsø Skole,Grundskoler,Folkeskoler,"(55.592431491502, 11.856839261915699)"
292,257002,8.1,7.7,350,55.636872911971295,11.871472961501,4060,296.0,Kirke Saaby Skole,Grundskoler,Folkeskoler,"(55.636872911971295, 11.871472961501)"
293,257300,5.7,6.9,350,55.55212092485851,11.913839412607999,4330,111.0,Midtsjællands Efterskole,Efterskoler,Efterskoler,"(55.55212092485851, 11.913839412607999)"
294,259003,6.9,6.9,259,55.454089112568795,12.1644038868996,4600,475.0,Ellemarkskolen,Grundskoler,Folkeskoler,"(55.454089112568795, 12.1644038868996)"
295,259004,6.0,6.5,259,55.417457902192204,12.142482371001101,4681,428.0,Herfølge Skole,Grundskoler,Folkeskoler,"(55.417457902192204, 12.142482371001101)"
296,259005,5.9,6.1,259,55.5022072713651,12.1147631942322,4623,270.0,Højelse Skole,Grundskoler,Folkeskoler,"(55.5022072713651, 12.1147631942322)"
297,259006,6.1,6.2,259,55.4944172905885,12.176183864216402,4600,562.0,Kirstinedalsskolen,Grundskoler,Folkeskoler,"(55.4944172905885, 12.176183864216402)"
298,259008,7.7,7.1,259,55.446460503768606,12.1755736544339,4600,429.0,Søndre Skole,Grundskoler,Folkeskoler,"(55.446460503768606, 12.1755736544339)"
299,259011,6.3,6.8,259,55.43702315224421,12.153777246986499,4600,516.0,Hastrupskolen,Grundskoler,Folkeskoler,"(55.43702315224421, 12.153777246986499)"
300,259013,7.6,7.7,259,55.4279778822232,12.1817108981299,4600,222.0,Køge Lille Skole,Grundskoler,Friskoler og private grundskoler,"(55.4279778822232, 12.1817108981299)"
301,259015,7.4,6.7,259,55.403244459064595,12.137494003394,4681,348.0,Holmebækskolen,Grundskoler,Folkeskoler,"(55.403244459064595, 12.137494003394)"
302,259019,7.5,7.6,259,55.460455006627505,12.1829894833089,4600,472.0,Sct. Nicolai Skole,Grundskoler,Folkeskoler,"(55.460455006627505, 12.1829894833089)"
303,259020,7.6,7.4,259,55.40960971111,12.1455056137375,4681,149.0,Herfølge Privatskole,Grundskoler,Friskoler og private grundskoler,"(55.40960971111, 12.1455056137375)"
304,259021,8.1,7.8,259,55.4227983578779,12.182897180778198,4600,215.0,Billesborgskolen,Grundskoler,Friskoler og private grundskoler,"(55.4227983578779, 12.182897180778198)"
305,259022,8.5,8.0,259,55.48018386790999,12.1766821740718,4600,629.0,Køge Private Realskole,Grundskoler,Friskoler og private grundskoler,"(55.48018386790999, 12.1766821740718)"
306,259025,7.6,6.9,259,55.4733813625629,12.1665716714055,4600,603.0,Asgård Skole,Grundskoler,Folkeskoler,"(55.4733813625629, 12.1665716714055)"
307,261001,8.4,8.1,350,55.60199066024529,11.964887639763901,4320,607.0,Allerslev Skole,Grundskoler,Folkeskoler,"(55.60199066024529, 11.964887639763901)"
308,261002,7.2,6.8,350,55.561996266852205,11.9627856571647,4320,235.0,Osted Skole,Grundskoler,Folkeskoler,"(55.561996266852205, 11.9627856571647)"
309,261004,6.4,6.9,350,55.6688310273594,11.9623111312214,4000,289.0,Trællerupskolen,Grundskoler,Folkeskoler,"(55.6688310273594, 11.9623111312214)"
311,263001,6.9,6.9,265,55.569202465641006,12.091540697949801,4621,485.0,Gadstrup Skole,Grundskoler,Folkeskoler,"(55.569202465641006, 12.091540697949801)"
312,263003,7.5,7.7,265,55.561566981739794,12.025155262678,4130,198.0,Viby Friskole,Grundskoler,Friskoler og private grundskoler,"(55.561566981739794, 12.025155262678)"
313,265001,7.3,7.7,265,55.640121561156796,12.0740920661236,4000,726.0,Absalons Skole,Grundskoler,Folkeskoler,"(55.640121561156796, 12.0740920661236)"
314,265005,6.7,6.6,265,55.640933234109994,12.1016207213214,4000,409.0,Hedegårdenes Skole,Grundskoler,Folkeskoler,"(55.640933234109994, 12.1016207213214)"
315,265006,7.8,7.9,265,55.6594845896735,12.1037034385823,4000,745.0,Himmelev Skole,Grundskoler,Folkeskoler,"(55.6594845896735, 12.1037034385823)"
316,265007,8.5,8.0,265,55.64985971643121,12.0957308916958,4000,732.0,Klostermarksskolen,Grundskoler,Folkeskoler,"(55.64985971643121, 12.0957308916958)"
317,265008,7.5,7.4,265,55.6325366731635,12.0104845507574,4000,563.0,Lynghøjskolen,Grundskoler,Folkeskoler,"(55.6325366731635, 12.0104845507574)"
318,265010,7.0,7.3,265,55.6391148140523,12.062861597407698,4000,612.0,Sct. Jørgens Skole,Grundskoler,Folkeskoler,"(55.6391148140523, 12.062861597407698)"
319,265013,8.0,7.7,265,55.629513422244905,12.0964585107075,4000,537.0,Østervangsskolen,Grundskoler,Folkeskoler,"(55.629513422244905, 12.0964585107075)"
320,265015,7.0,7.4,265,55.6323180060445,12.0569871934356,4000,492.0,Tjørnegårdskolen,Grundskoler,Folkeskoler,"(55.6323180060445, 12.0569871934356)"
321,265017,8.6,8.1,265,55.642932978870704,12.0847040376776,4000,349.0,Roskilde Private Realskole,Grundskoler,Friskoler og private grundskoler,"(55.642932978870704, 12.0847040376776)"
322,265018,8.4,8.0,265,55.6459092900109,12.0970171480405,4000,99.0,Roskilde Private Skole,Grundskoler,Friskoler og private grundskoler,"(55.6459092900109, 12.0970171480405)"
323,265019,8.1,8.0,265,55.64435837875521,12.084221473750901,4000,987.0,Skt. Josefs Skole,Grundskoler,Friskoler og private grundskoler,"(55.64435837875521, 12.084221473750901)"
324,265032,8.3,8.1,265,55.6516828087228,12.1232873747319,4000,901.0,Trekronerskolen,Grundskoler,Folkeskoler,"(55.6516828087228, 12.1232873747319)"
326,267001,7.4,7.1,259,55.4507188534702,12.0343328617438,4632,458.0,Skovboskolen,Grundskoler,Folkeskoler,"(55.4507188534702, 12.0343328617438)"
327,267002,7.2,7.1,259,55.4985280438289,11.974807573638001,4140,645.0,Borup Skole,Grundskoler,Folkeskoler,"(55.4985280438289, 11.974807573638001)"
328,267003,7.6,7.2,259,55.4926759003305,12.0663506427093,4623,390.0,Ejby Skole,Grundskoler,Folkeskoler,"(55.4926759003305, 12.0663506427093)"
329,267005,7.1,6.9,259,55.460689092383795,12.056645616287598,4632,305.0,Vemmedrupskolen,Grundskoler,Folkeskoler,"(55.460689092383795, 12.056645616287598)"
330,267008,9.9,8.6,259,55.4899239125286,11.971681468588901,4140,211.0,Borup Privatskole,Grundskoler,Friskoler og private grundskoler,"(55.4899239125286, 11.971681468588901)"
331,267300,6.5,7.1,259,55.4470743807749,11.956741402569099,4100,102.0,Skovbo Efterskole,Efterskoler,Efterskoler,"(55.4470743807749, 11.956741402569099)"
332,269001,6.9,7.1,269,55.5474108362534,12.129555089205198,4622,531.0,Havdrup Skole,Grundskoler,Folkeskoler,"(55.5474108362534, 12.129555089205198)"
333,269005,7.4,7.1,269,55.528193181575006,12.2106574568232,2680,1194.0,Uglegårdsskolen,Grundskoler,Folkeskoler,"(55.528193181575006, 12.2106574568232)"
334,269006,8.6,8.1,269,55.5188200287204,12.2084739699324,2680,173.0,Sydkystens Privatskole,Grundskoler,Friskoler og private grundskoler,"(55.5188200287204, 12.2084739699324)"
335,269007,7.5,7.3,269,55.540553716992704,12.217852838605198,2680,881.0,Munkekærskolen,Grundskoler,Folkeskoler,"(55.540553716992704, 12.217852838605198)"
336,269009,9.1,8.6,269,55.5365196699162,12.1885558225471,2680,240.0,Køge Bugt Privatskole,Grundskoler,Friskoler og private grundskoler,"(55.5365196699162, 12.1885558225471)"
337,270002,7.0,7.0,270,56.0649028737457,12.1347947734203,3210,391.0,Sankt Helene Skole,Grundskoler,Folkeskoler,"(56.0649028737457, 12.1347947734203)"
338,271001,6.9,6.5,336,55.345358072885894,12.2384607008639,4652,398.0,Hotherskolen,Grundskoler,Folkeskoler,"(55.345358072885894, 12.2384607008639)"
339,271002,6.8,6.9,336,55.400752307354004,12.2625994728878,4671,788.0,Strøbyskolen,Grundskoler,Folkeskoler,"(55.400752307354004, 12.2625994728878)"
340,280038,5.7,6.3,320,55.272149664601095,12.243205264848699,4640,161.0,Spjellerup Friskole,Grundskoler,Friskoler og private grundskoler,"(55.272149664601095, 12.243205264848699)"
341,280039,4.9,5.1,217,56.0230526140208,12.561824665572601,3000,142.0,Helsingør Privatskole,Grundskoler,Friskoler og private grundskoler,"(56.0230526140208, 12.561824665572601)"
342,280047,7.4,7.4,101,55.6312367858568,12.5810236879328,2300,904.0,Ørestad Skole,Grundskoler,Folkeskoler,"(55.6312367858568, 12.5810236879328)"
343,280048,5.7,6.0,360,54.7733922320398,11.5083712300103,4930,238.0,"Distriktsskolen Øst, Borgerskoleafdelingen",Grundskoler,Folkeskoler,"(54.7733922320398, 11.5083712300103)"
344,280053,4.5,5.0,706,56.284068402419,10.5853801772889,8410,147.0,Feldballe Friskole,Grundskoler,Friskoler og private grundskoler,"(56.284068402419, 10.5853801772889)"
345,280055,7.1,6.9,306,55.88754437915879,11.6234432925248,4572,176.0,Nr. Asmindrup Friskole,Grundskoler,Friskoler og private grundskoler,"(55.88754437915879, 11.6234432925248)"
346,280106,5.3,5.7,165,55.659586672471,12.341494606912901,2620,571.0,Herstedlund Skole,Grundskoler,Folkeskoler,"(55.659586672471, 12.341494606912901)"
347,280113,6.8,7.1,479,55.0737552737478,10.6383485987165,5700,665.0,Nymarkskolen,Grundskoler,Folkeskoler,"(55.0737552737478, 10.6383485987165)"
348,280117,6.8,6.5,430,55.2295431578787,10.252286121863301,5672,451.0,Brobyskolerne,Grundskoler,Folkeskoler,"(55.2295431578787, 10.252286121863301)"
349,280119,7.9,7.6,210,55.9655019685026,12.4197359584993,3480,924.0,Fredensborg Skole,Grundskoler,Folkeskoler,"(55.9655019685026, 12.4197359584993)"
350,280120,8.0,7.9,210,55.9568276615038,12.5328880743607,3050,600.0,Humlebæk Skole,Grundskoler,Folkeskoler,"(55.9568276615038, 12.5328880743607)"
351,280121,8.0,7.5,210,55.9333170210966,12.501172604370199,2990,666.0,Nivå Skole,Grundskoler,Folkeskoler,"(55.9333170210966, 12.501172604370199)"
352,280122,6.7,6.7,210,55.9096863554127,12.489140462163599,2980,726.0,Kokkedal Skole,Grundskoler,Folkeskoler,"(55.9096863554127, 12.489140462163599)"
353,280135,7.6,7.4,479,55.074133645528796,10.448997895481499,5762,337.0,Vestermarkskolen,Grundskoler,Folkeskoler,"(55.074133645528796, 10.448997895481499)"
354,280136,6.8,6.8,479,55.132424622880706,10.5022666150997,5771,386.0,Issø-skolen,Grundskoler,Folkeskoler,"(55.132424622880706, 10.5022666150997)"
355,280137,7.4,7.1,479,55.152583961181094,10.708214257051901,5884,459.0,Stokkebækskolen,Grundskoler,Folkeskoler,"(55.152583961181094, 10.708214257051901)"
356,280138,8.1,7.6,479,55.095335622090204,10.6876733611968,5881,414.0,Skårup Skole,Grundskoler,Folkeskoler,"(55.095335622090204, 10.6876733611968)"
357,280139,7.4,7.3,479,55.040167411014004,10.6152332405109,5700,778.0,Tåsingeskolen,Grundskoler,Folkeskoler,"(55.040167411014004, 10.6152332405109)"
358,280140,7.1,7.2,370,55.3492093888418,11.8123528924806,4160,192.0,Tybjerg Privatskole,Grundskoler,Friskoler og private grundskoler,"(55.3492093888418, 11.8123528924806)"
359,280161,5.6,5.8,820,56.9587267508212,9.354247577682,9670,207.0,Toppedalskolen,Grundskoler,Folkeskoler,"(56.9587267508212, 9.354247577682)"
360,280163,7.5,7.6,219,55.940604907469904,12.2661680154197,3400,847.0,Hillerød Vest Skolen,Grundskoler,Folkeskoler,"(55.940604907469904, 12.2661680154197)"
361,280164,6.3,6.9,219,55.94103818057901,12.334818246366801,3400,925.0,Grønnevang skole,Grundskoler,Folkeskoler,"(55.94103818057901, 12.334818246366801)"
362,280165,7.6,7.7,219,55.8886257344215,12.287154944449698,3400,567.0,Hanebjerg Skole,Grundskoler,Folkeskoler,"(55.8886257344215, 12.287154944449698)"
363,280166,7.0,7.0,219,55.910731865883,12.1555885046992,3320,710.0,Kornmarkskolen,Grundskoler,Folkeskoler,"(55.910731865883, 12.1555885046992)"
364,280186,7.7,7.6,155,55.595554994484104,12.6372393011621,2791,738.0,St. Magleby Skole,Grundskoler,Folkeskoler,"(55.595554994484104, 12.6372393011621)"
365,280187,7.3,7.5,155,55.59360699999999,12.669817,2791,448.0,Dragør Skole,Grundskoler,Folkeskoler,"(55.59360699999999, 12.669817)"
366,280189,6.3,6.6,575,55.482036801275704,9.01940415316144,6650,553.0,Brørupskolen,Grundskoler,Folkeskoler,"(55.482036801275704, 9.01940415316144)"
367,280197,5.2,6.0,260,55.9863016853186,12.014365345791699,3300,487.0,Frederiksværk Skole,Grundskoler,Folkeskoler,"(55.9863016853186, 12.014365345791699)"
368,280198,6.2,6.9,260,55.956682499800394,11.8553042626664,3390,690.0,Hundested Skole,Grundskoler,Folkeskoler,"(55.956682499800394, 11.8553042626664)"
369,280207,7.8,7.8,860,57.46046219264421,9.869841401433519,9800,115.0,Friskolen Skallerup,Grundskoler,Friskoler og private grundskoler,"(57.46046219264421, 9.869841401433519)"
370,280208,6.8,6.8,580,54.893633935486406,9.44056162509993,6340,112.0,Grænseegnens Friskole,Grundskoler,Friskoler og private grundskoler,"(54.893633935486406, 9.44056162509993)"
371,280210,6.0,6.1,376,54.74283505714929,11.959542377034099,4872,216.0,Idestrup Privatskole,Grundskoler,Friskoler og private grundskoler,"(54.74283505714929, 11.959542377034099)"
372,280211,6.9,6.9,860,57.4591325016399,10.2412502012554,9870,93.0,Sindal Privatskole,Grundskoler,Friskoler og private grundskoler,"(57.4591325016399, 10.2412502012554)"
373,280212,7.0,7.0,849,57.3131327832319,9.714235977400289,9480,108.0,Ingstrup Trivselsskole,Grundskoler,Friskoler og private grundskoler,"(57.3131327832319, 9.714235977400289)"
374,280216,3.6,4.1,461,55.4414432381569,10.371076210406699,5270,174.0,Roser Skole,Grundskoler,Friskoler og private grundskoler,"(55.4414432381569, 10.371076210406699)"
375,280218,7.7,7.4,621,55.3535831854593,9.357460458510161,6070,167.0,Stepping Friskole,Grundskoler,Friskoler og private grundskoler,"(55.3535831854593, 9.357460458510161)"
376,280221,5.2,5.4,860,57.5070824103152,10.2795887678634,9870,98.0,Vendsyssel Friskole,Grundskoler,Friskoler og private grundskoler,"(57.5070824103152, 10.2795887678634)"
377,280222,6.7,7.3,250,55.8298902391764,12.085982613844301,3600,968.0,Ådalens Skole,Grundskoler,Folkeskoler,"(55.8298902391764, 12.085982613844301)"
378,280224,6.7,7.1,727,55.948544061476,10.198992164428,8300,100.0,Randlevskolen,Grundskoler,Friskoler og private grundskoler,"(55.948544061476, 10.198992164428)"
379,280239,5.4,6.4,510,55.2474362680449,9.31194134912746,6500,793.0,Lagoniskolen,Grundskoler,Folkeskoler,"(55.2474362680449, 9.31194134912746)"
380,280240,7.0,7.0,510,55.26176115767329,9.50837183797414,6100,933.0,Fællesskolen Favrdal-Fjelstrup,Grundskoler,Folkeskoler,"(55.26176115767329, 9.50837183797414)"
381,280242,6.9,6.9,510,55.2454520533236,9.48847157313466,6100,926.0,Sønder Otting Skole,Grundskoler,Folkeskoler,"(55.2454520533236, 9.48847157313466)"
382,280270,7.2,7.0,270,56.11641525487221,12.307447740476599,3250,850.0,Gilbjergskolen,Grundskoler,Folkeskoler,"(56.11641525487221, 12.307447740476599)"
383,280271,6.4,6.8,270,56.067108,12.281852,3230,548.0,Gribskolen,Grundskoler,Folkeskoler,"(56.067108, 12.281852)"
384,280272,6.9,6.8,270,56.02584480077189,12.1912107394205,3200,645.0,Nordstjerneskolen,Grundskoler,Folkeskoler,"(56.02584480077189, 12.1912107394205)"
385,280307,6.7,7.3,751,56.18921016874229,10.2222200663227,8240,127.0,Risskov Efterskole & Sansestormerne,Efterskoler,Efterskoler,"(56.18921016874229, 10.2222200663227)"
386,280308,7.5,7.6,740,56.1597458359536,9.556186143778039,8600,122.0,Silkeborg Efterskole,Efterskoler,Efterskoler,"(56.1597458359536, 9.556186143778039)"
387,280313,7.3,7.7,751,56.03529895751821,10.195100344776199,8340,83.0,Efterskolen for Scenekunst,Efterskoler,Efterskoler,"(56.03529895751821, 10.195100344776199)"
388,280316,7.5,7.3,530,55.7257001245478,9.104640333234169,7190,702.0,BillundSkolen,Grundskoler,Folkeskoler,"(55.7257001245478, 9.104640333234169)"
389,280319,6.2,6.7,580,55.0345675342468,9.406011629529711,6200,869.0,Kongehøjskolen,Grundskoler,Folkeskoler,"(55.0345675342468, 9.406011629529711)"
390,280320,6.7,6.4,580,55.0723682349666,9.332392461402438,6230,737.0,Hærvejsskolen,Grundskoler,Folkeskoler,"(55.0723682349666, 9.332392461402438)"
391,280321,6.5,6.4,580,54.843507702268894,9.37028246613441,6330,587.0,Lyreskovskolen,Grundskoler,Folkeskoler,"(54.843507702268894, 9.37028246613441)"
392,280327,7.9,8.0,230,55.840816530020895,12.414754295270601,3460,678.0,Birkerød Skole,Grundskoler,Folkeskoler,"(55.840816530020895, 12.414754295270601)"
394,280332,7.3,7.1,630,55.70345322008679,9.30934073038325,7182,261.0,Firehøjeskolen,Grundskoler,Folkeskoler,"(55.70345322008679, 9.30934073038325)"
395,280333,6.8,7.1,630,55.652385156034,9.66482996082203,7080,506.0,Fælleshåbsskolen,Grundskoler,Folkeskoler,"(55.652385156034, 9.66482996082203)"
396,280335,7.5,7.2,630,55.7038342499525,9.37740191123808,7182,436.0,Bredsten - Gadbjerg Skole,Grundskoler,Folkeskoler,"(55.7038342499525, 9.37740191123808)"
397,280342,6.5,6.7,329,55.429105314950505,11.782244172467001,4100,644.0,Campusskolen,Grundskoler,Folkeskoler,"(55.429105314950505, 11.782244172467001)"
398,280351,6.7,6.9,390,55.117232114161,12.049251232796,4720,458.0,Præstø skole,Grundskoler,Folkeskoler,"(55.117232114161, 12.049251232796)"
399,280379,6.8,7.2,350,55.714615946051104,11.9379582149968,4070,196.0,Sofiehøj Friskole,Grundskoler,Friskoler og private grundskoler,"(55.714615946051104, 11.9379582149968)"
400,280380,7.0,7.2,329,55.5239426607302,11.769332746418801,4370,161.0,Allindelille Friskole,Grundskoler,Friskoler og private grundskoler,"(55.5239426607302, 11.769332746418801)"
401,280381,7.5,7.6,250,55.8553134753429,11.9821285206267,3630,137.0,Slotsparkens Friskole,Grundskoler,Friskoler og private grundskoler,"(55.8553134753429, 11.9821285206267)"
402,280383,5.3,5.6,846,56.5867770771999,9.76214338230001,9500,187.0,Mariagerfjord Idrætsskole,Grundskoler,Friskoler og private grundskoler,"(56.5867770771999, 9.76214338230001)"
403,280384,8.1,8.1,791,56.411417510544005,9.34679331044587,8800,152.0,Hald Ege Fri- og Efterskole,Grundskoler,Friskoler og private grundskoler,"(56.411417510544005, 9.34679331044587)"
404,280385,4.7,5.2,573,55.738797524298,8.706178548395389,6823,104.0,Skovlund Friskole,Grundskoler,Friskoler og private grundskoler,"(55.738797524298, 8.706178548395389)"
405,280388,6.8,6.6,530,55.814116517139595,9.0309593612452,7200,128.0,Filskov Friskole,Grundskoler,Friskoler og private grundskoler,"(55.814116517139595, 9.0309593612452)"
406,280390,5.8,6.2,710,56.36553141917479,10.162437134092801,8370,136.0,Voldumegnens Friskole,Grundskoler,Friskoler og private grundskoler,"(56.36553141917479, 10.162437134092801)"
407,280391,6.7,6.9,329,55.4508551598201,11.872611146867301,4100,167.0,Kværkeby Friskole,Grundskoler,Friskoler og private grundskoler,"(55.4508551598201, 11.872611146867301)"
408,280392,7.3,7.1,573,55.7832226871432,8.65523002782968,6870,91.0,Ølgod Kristne Friskole,Grundskoler,Friskoler og private grundskoler,"(55.7832226871432, 8.65523002782968)"
409,280393,6.7,6.9,330,55.470258534417496,11.4095378227981,4200,155.0,Vestermose Natur- og Idrætsfriskole,Grundskoler,Friskoler og private grundskoler,"(55.470258534417496, 11.4095378227981)"
411,280396,6.5,6.0,265,55.629884541989796,12.078562469336902,4000,199.0,Ros Privatskole,Grundskoler,Friskoler og private grundskoler,"(55.629884541989796, 12.078562469336902)"
412,280405,7.7,7.6,730,56.449554502357294,10.088911371315,8960,221.0,Romalt Friskole,Grundskoler,Friskoler og private grundskoler,"(56.449554502357294, 10.088911371315)"
413,280434,6.1,6.1,540,55.0571236805171,9.74397496562463,6430,338.0,Nordals skolen,Grundskoler,Folkeskoler,"(55.0571236805171, 9.74397496562463)"
415,280447,8.7,8.1,217,56.07116919684071,12.5537807908707,3150,275.0,Skorpeskolen,Grundskoler,Friskoler og private grundskoler,"(56.07116919684071, 12.5537807908707)"
416,280453,3.2,4.3,671,56.6193957856538,8.57181450409958,7790,58.0,Handbjerghus Efterskole,Efterskoler,Efterskoler,"(56.6193957856538, 8.57181450409958)"
417,280456,7.7,7.2,440,55.45087671538939,10.6563313502577,5300,462.0,Kerteminde Byskole,Grundskoler,Folkeskoler,"(55.45087671538939, 10.6563313502577)"
418,280457,7.3,6.9,440,55.4530774391224,10.540886783769,5330,542.0,Munkebo Skole,Grundskoler,Folkeskoler,"(55.4530774391224, 10.540886783769)"
419,280461,5.5,6.4,336,55.3598236032658,12.3318855093171,4672,193.0,Skelbæk Friskole,Grundskoler,Friskoler og private grundskoler,"(55.3598236032658, 12.3318855093171)"
420,280463,5.8,6.5,630,55.755112978442405,9.42341601184519,7300,144.0,Jelling Friskole,Grundskoler,Friskoler og private grundskoler,"(55.755112978442405, 9.42341601184519)"
421,280464,6.9,6.8,336,55.3286965118715,12.2613029920285,4652,188.0,Hellested Friskole og Børnehus,Grundskoler,Friskoler og private grundskoler,"(55.3286965118715, 12.2613029920285)"
422,280467,5.1,5.5,269,55.525973560016006,12.168456255113899,2680,137.0,Jersie Privatskole,Grundskoler,Friskoler og private grundskoler,"(55.525973560016006, 12.168456255113899)"
424,280474,5.9,5.8,630,55.70790520131,9.51994387916315,7100,181.0,Vejle Privatskole,Grundskoler,Friskoler og private grundskoler,"(55.70790520131, 9.51994387916315)"
425,280532,8.9,8.2,390,55.124204145225605,12.0469626764512,4720,201.0,Præstø Privatskole,Grundskoler,Friskoler og private grundskoler,"(55.124204145225605, 12.0469626764512)"
426,280537,7.9,8.0,630,55.7253261614314,9.59475827075726,7120,146.0,Bredballe Privatskole,Grundskoler,Friskoler og private grundskoler,"(55.7253261614314, 9.59475827075726)"
427,280538,9.0,8.5,370,55.1475816976373,11.8702309801932,4700,124.0,Hammer Frie Privatskole,Grundskoler,Friskoler og private grundskoler,"(55.1475816976373, 11.8702309801932)"
428,280540,4.2,4.3,330,55.40492529,11.36989729,4200,69.0,Slagelse Privatskole,Grundskoler,Friskoler og private grundskoler,"(55.40492529, 11.36989729)"
429,280542,7.2,7.1,153,55.6545744650174,12.3984908346414,2605,287.0,Park Allé Privatskole,Grundskoler,Friskoler og private grundskoler,"(55.6545744650174, 12.3984908346414)"
430,280551,7.6,7.5,101,55.7214424732194,12.5590671166609,2100,171.0,Københavns Skole & Idrætsakademi,Grundskoler,Friskoler og private grundskoler,"(55.7214424732194, 12.5590671166609)"
431,280612,5.6,6.7,540,54.9866321405921,9.97720396034187,6440,69.0,Efterskolen Epos,Efterskoler,Efterskoler,"(54.9866321405921, 9.97720396034187)"
432,280629,6.2,6.9,250,55.8491453015479,12.162698623372801,3550,948.0,Slangerup Skole,Grundskoler,Folkeskoler,"(55.8491453015479, 12.162698623372801)"
433,280631,5.4,6.3,250,55.747314287707795,11.965818572351198,4050,664.0,Fjordlandsskolen,Grundskoler,Folkeskoler,"(55.747314287707795, 11.965818572351198)"
435,280638,8.1,8.0,210,55.940231608722705,12.4941784664208,2990,246.0,Per Gyrum Skolen,Grundskoler,Friskoler og private grundskoler,"(55.940231608722705, 12.4941784664208)"
436,280641,7.6,7.5,400,55.1306029715765,15.146942509746099,3740,216.0,Svaneke Friskole,Grundskoler,Friskoler og private grundskoler,"(55.1306029715765, 15.146942509746099)"
437,280643,7.4,7.2,167,55.6488383481225,12.4770735117525,2650,364.0,Hvidovre Privatskole,Grundskoler,Friskoler og private grundskoler,"(55.6488383481225, 12.4770735117525)"
438,280650,7.4,7.3,260,55.991994664994,12.033928122825902,3300,246.0,Vinderød Privatskole,Grundskoler,Friskoler og private grundskoler,"(55.991994664994, 12.033928122825902)"
439,280653,5.6,6.0,860,57.3559588667836,10.0124606171779,9760,189.0,Poulstrup Friskole og Børnehus,Grundskoler,Friskoler og private grundskoler,"(57.3559588667836, 10.0124606171779)"
440,280658,6.4,6.5,550,54.937343316727,8.86845259229135,6270,161.0,Marieskolen,Grundskoler,Friskoler og private grundskoler,"(54.937343316727, 8.86845259229135)"
441,280659,6.0,6.2,810,57.1997364709714,10.3815544085712,9330,147.0,Agersted Friskole,Grundskoler,Friskoler og private grundskoler,"(57.1997364709714, 10.3815544085712)"
442,280662,5.6,5.8,860,57.47610880430321,10.096007191796,9800,104.0,Astrup-Sønderskov Friskole,Grundskoler,Friskoler og private grundskoler,"(57.47610880430321, 10.096007191796)"
443,280743,6.3,6.1,630,55.671579505417995,9.57794878622174,7100,41.0,"Skolen for Gastronomi, Musik & Design",Efterskoler,Efterskoler,"(55.671579505417995, 9.57794878622174)"
445,280810,6.8,6.8,430,55.1045545512824,10.221536216749099,5600,694.0,Øhavsskolen,Grundskoler,Folkeskoler,"(55.1045545512824, 10.221536216749099)"
458,301004,6.3,6.6,326,55.721980339067294,11.368199352845302,4591,211.0,Firhøjskolen,Grundskoler,Folkeskoler,"(55.721980339067294, 11.368199352845302)"
459,301007,4.9,5.6,326,55.6512230656595,11.2864619208935,4470,277.0,Svebølle Skole,Grundskoler,Folkeskoler,"(55.6512230656595, 11.2864619208935)"
460,301008,7.5,7.3,326,55.7001854451791,11.3400485904001,4591,200.0,Højbo Friskole,Grundskoler,Friskoler og private grundskoler,"(55.7001854451791, 11.3400485904001)"
461,301010,5.8,5.9,326,55.6765392137367,11.333402052945099,4450,133.0,Bregninge-Bjergsted Friskole,Grundskoler,Friskoler og private grundskoler,"(55.6765392137367, 11.333402052945099)"
462,303001,6.5,6.5,340,55.521003007661,11.4955354682533,4293,542.0,Holbergskolen,Grundskoler,Folkeskoler,"(55.521003007661, 11.4955354682533)"
463,303003,6.9,6.5,340,55.53812535108211,11.373298054861698,4291,204.0,Ruds Vedby Skole,Grundskoler,Folkeskoler,"(55.53812535108211, 11.373298054861698)"
464,305011,7.4,7.2,306,55.788147666224795,11.4630150186107,4540,183.0,Fårevejle Fri-  og Efterskole,Grundskoler,Friskoler og private grundskoler,"(55.788147666224795, 11.4630150186107)"
465,305015,7.4,7.2,306,55.750519182198495,11.436512067274199,4534,176.0,Vallekilde-Hørve Friskole,Grundskoler,Friskoler og private grundskoler,"(55.750519182198495, 11.436512067274199)"
466,305300,6.2,7.1,306,55.788147666224795,11.4630150186107,4540,145.0,Fårevejle Fri- og Efterskole,Efterskoler,Efterskoler,"(55.788147666224795, 11.4630150186107)"
467,305302,7.6,7.6,306,55.79036672948789,11.4633946878871,4540,155.0,Odsherreds Efterskole,Efterskoler,Efterskoler,"(55.79036672948789, 11.4633946878871)"
468,307004,6.0,6.6,370,55.286426764517294,11.558408508311802,4250,213.0,Hindholm Privatskole,Grundskoler,Friskoler og private grundskoler,"(55.286426764517294, 11.558408508311802)"
469,307300,5.8,6.4,370,55.2712596922968,11.478215035399401,4262,87.0,Hårslev Efterskole,Efterskoler,Efterskoler,"(55.2712596922968, 11.478215035399401)"
470,309001,5.1,5.5,326,55.543106975541704,11.223517428497301,4281,206.0,Gørlev Skole,Grundskoler,Folkeskoler,"(55.543106975541704, 11.223517428497301)"
471,309002,6.0,6.2,326,55.5141961565784,11.2049327136426,4281,138.0,Kirke-Helsinge Skole,Grundskoler,Folkeskoler,"(55.5141961565784, 11.2049327136426)"
472,309004,7.8,7.5,326,55.5225686027602,11.1947562478948,4281,179.0,Vinde Helsinge Friskole,Grundskoler,Friskoler og private grundskoler,"(55.5225686027602, 11.1947562478948)"
473,309300,6.8,6.9,326,55.5225686027602,11.1947562478948,4281,118.0,Vestsjællands Idrætsefterskole,Efterskoler,Efterskoler,"(55.5225686027602, 11.1947562478948)"
474,311001,5.8,6.1,330,55.2949518962321,11.417510824212501,4261,168.0,Dalmose skole,Grundskoler,Folkeskoler,"(55.2949518962321, 11.417510824212501)"
475,311301,7.2,7.5,330,55.3203556359959,11.394026920013198,4200,156.0,Flakkebjerg Efterskole,Efterskoler,Efterskoler,"(55.3203556359959, 11.394026920013198)"
476,313007,7.0,7.4,320,55.3156259496872,11.966999663573699,4690,403.0,Haslev Privatskole,Grundskoler,Friskoler og private grundskoler,"(55.3156259496872, 11.966999663573699)"
477,315011,7.8,7.8,316,55.7110183393565,11.706754544376302,4300,619.0,Holbæk Private Realskole,Grundskoler,Friskoler og private grundskoler,"(55.7110183393565, 11.706754544376302)"
478,315012,7.8,7.7,316,55.700959946858795,11.672676331164801,4300,591.0,Stenhus Kostskole,Grundskoler,Friskoler og private grundskoler,"(55.700959946858795, 11.672676331164801)"
479,315013,8.8,8.3,316,55.71234957849521,11.7474491508205,4300,269.0,Andreasskolen,Grundskoler,Friskoler og private grundskoler,"(55.71234957849521, 11.7474491508205)"
480,317001,4.9,5.9,326,55.6108088448393,11.229902731240802,4490,321.0,Hvidebækskolen,Grundskoler,Folkeskoler,"(55.6108088448393, 11.229902731240802)"
481,317006,6.5,6.6,326,55.62091556516279,11.2075293333314,4490,180.0,Friskolen og Idrætsefterskolen Ubby,Grundskoler,Friskoler og private grundskoler,"(55.62091556516279, 11.2075293333314)"
482,317300,5.4,6.2,326,55.62091556516279,11.2075293333314,4490,79.0,Friskolen og Idrætsefterskolen Ubby,Efterskoler,Efterskoler,"(55.62091556516279, 11.2075293333314)"
483,319002,5.6,6.0,326,55.509568452254,11.2970228487905,4270,468.0,Høng Skole,Grundskoler,Folkeskoler,"(55.509568452254, 11.2970228487905)"
484,319007,7.0,6.9,326,55.5111757505678,11.2888197723704,4270,171.0,Høng Privatskole,Grundskoler,Friskoler og private grundskoler,"(55.5111757505678, 11.2888197723704)"
485,319010,7.6,7.5,326,55.5449604258636,11.3009785862,4270,138.0,Sæby-Hallenslev Friskole,Grundskoler,Friskoler og private grundskoler,"(55.5449604258636, 11.3009785862)"
486,319300,6.7,7.4,326,55.5150276130037,11.2813408761444,4270,120.0,Høng Efterskole,Efterskoler,Efterskoler,"(55.5150276130037, 11.2813408761444)"
487,323001,7.4,7.2,326,55.7014929464505,11.040608060960698,4400,424.0,Nyrupskolen,Grundskoler,Folkeskoler,"(55.7014929464505, 11.040608060960698)"
488,323003,4.8,5.7,326,55.6794940894023,11.106600812542501,4400,408.0,Rynkevangskolen,Grundskoler,Folkeskoler,"(55.6794940894023, 11.106600812542501)"
489,323010,6.6,7.1,326,55.6920371975583,11.153949293597,4400,195.0,Tømmerup Fri- og Efterskole,Grundskoler,Friskoler og private grundskoler,"(55.6920371975583, 11.153949293597)"
490,323013,6.9,7.4,326,55.66964335118179,11.111731667315901,4400,213.0,Kalundborg Friskole,Grundskoler,Friskoler og private grundskoler,"(55.66964335118179, 11.111731667315901)"
491,323016,5.9,6.3,326,55.6914362830983,11.085528218920901,4400,765.0,Skolen på Herredsåsen,Grundskoler,Folkeskoler,"(55.6914362830983, 11.085528218920901)"
492,325001,5.9,5.8,330,55.342019113046206,11.125635481891699,4220,419.0,Broskolen,Grundskoler,Folkeskoler,"(55.342019113046206, 11.125635481891699)"
493,325003,6.3,6.4,330,55.329322884244,11.142559660371099,4220,557.0,Baggesenskolen,Grundskoler,Folkeskoler,"(55.329322884244, 11.142559660371099)"
494,325005,3.7,4.2,330,55.3572413926249,11.1859295242242,4220,150.0,Tårnborg Skole,Grundskoler,Folkeskoler,"(55.3572413926249, 11.1859295242242)"
495,325006,7.1,6.8,330,55.3627955522515,11.2639920142948,4241,463.0,Vemmelev Skole,Grundskoler,Folkeskoler,"(55.3627955522515, 11.2639920142948)"
496,325007,6.6,6.8,330,55.3707312209931,11.2604558606115,4241,204.0,Forlev Friskole,Grundskoler,Friskoler og private grundskoler,"(55.3707312209931, 11.2604558606115)"
497,325008,8.3,8.0,330,55.327626976507304,11.1436726005265,4220,208.0,Helms Skole,Grundskoler,Friskoler og private grundskoler,"(55.327626976507304, 11.1436726005265)"
498,327002,6.1,6.0,306,55.93115273126679,11.743396932269599,4581,157.0,Rørvig Friskole,Grundskoler,Friskoler og private grundskoler,"(55.93115273126679, 11.743396932269599)"
499,329017,7.8,7.6,329,55.4463485168664,11.794785659521501,4100,287.0,Sct Joseph Skole,Grundskoler,Friskoler og private grundskoler,"(55.4463485168664, 11.794785659521501)"
500,329018,7.9,7.5,329,55.4422175263705,11.8029910079943,4100,114.0,Ringsted Privatskole,Grundskoler,Friskoler og private grundskoler,"(55.4422175263705, 11.8029910079943)"
501,329022,7.5,7.6,329,55.443972682543794,11.7278283153094,4100,236.0,Ringsted Ny Friskole,Grundskoler,Friskoler og private grundskoler,"(55.443972682543794, 11.7278283153094)"
502,331003,7.6,6.5,330,55.2553967569699,11.3113475226367,4230,558.0,Eggeslevmagle Skole,Grundskoler,Folkeskoler,"(55.2553967569699, 11.3113475226367)"
503,331007,7.5,6.9,330,55.253508724496,11.2843658438436,4230,408.0,Skælskør Skole,Grundskoler,Folkeskoler,"(55.253508724496, 11.2843658438436)"
504,331008,8.0,7.8,330,55.3115016297686,11.2309661663104,4242,195.0,Lille Egede Friskole,Grundskoler,Friskoler og private grundskoler,"(55.3115016297686, 11.2309661663104)"
505,333004,6.9,6.6,330,55.4009519845084,11.329370314869001,4200,698.0,Marievangsskolen,Grundskoler,Folkeskoler,"(55.4009519845084, 11.329370314869001)"
506,333005,6.7,6.6,330,55.4106275752843,11.3683735135771,4200,526.0,Nymarkskolen,Grundskoler,Folkeskoler,"(55.4106275752843, 11.3683735135771)"
507,333008,7.7,7.1,330,55.430122,11.241421,4200,305.0,Stillinge Skole,Grundskoler,Folkeskoler,"(55.430122, 11.241421)"
508,333011,6.7,6.3,330,55.4066212909937,11.386161080302,4200,539.0,Søndermarksskolen,Grundskoler,Folkeskoler,"(55.4066212909937, 11.386161080302)"
509,333012,7.7,7.6,330,55.394484818032204,11.332691334646402,4200,220.0,Landsgrav Friskole,Grundskoler,Friskoler og private grundskoler,"(55.394484818032204, 11.332691334646402)"
511,333015,7.3,6.9,330,55.392905729937496,11.356366094892099,4200,1149.0,Antvorskov Skole,Grundskoler,Folkeskoler,"(55.392905729937496, 11.356366094892099)"
512,333023,5.8,6.7,330,55.4007147425116,11.282424405479,4200,153.0,Trelleborg Friskole,Grundskoler,Friskoler og private grundskoler,"(55.4007147425116, 11.282424405479)"
513,335002,7.9,7.9,340,55.4125797589141,11.558438579309302,4180,720.0,Frederiksberg Skole,Grundskoler,Folkeskoler,"(55.4125797589141, 11.558438579309302)"
514,335003,6.7,6.9,340,55.462278193070205,11.5530353951563,4180,501.0,Pedersborg Skole,Grundskoler,Folkeskoler,"(55.462278193070205, 11.5530353951563)"
515,335005,6.6,6.7,340,55.435779913261996,11.5594244239131,4180,490.0,Sorø Borgerskole,Grundskoler,Folkeskoler,"(55.435779913261996, 11.5594244239131)"
516,335006,8.7,8.1,340,55.4357275515217,11.5565344390053,4180,654.0,Sorø Privatskole,Grundskoler,Friskoler og private grundskoler,"(55.4357275515217, 11.5565344390053)"
517,337004,6.0,6.1,340,55.5353013335204,11.5886919060123,4295,453.0,Stenlille Skole,Grundskoler,Folkeskoler,"(55.5353013335204, 11.5886919060123)"
518,341300,6.9,7.3,316,55.6873036373553,11.477243243794199,4440,80.0,Efterskolen Smededal,Efterskoler,Efterskoler,"(55.6873036373553, 11.477243243794199)"
519,343002,6.2,6.2,306,55.910507396641705,11.5953251147528,4573,362.0,Nordskolen - afdeling Højby,Grundskoler,Folkeskoler,"(55.910507396641705, 11.5953251147528)"
520,345006,7.8,7.7,316,55.6124546769857,11.7771067067769,4340,259.0,"Tølløse Privat- og Efterskole, Baptisternes Skoler",Grundskoler,Friskoler og private grundskoler,"(55.6124546769857, 11.7771067067769)"
521,345007,8.0,7.8,316,55.612721975217504,11.7699936827735,4340,444.0,Sejergaardsskolen,Grundskoler,Friskoler og private grundskoler,"(55.612721975217504, 11.7699936827735)"
522,345300,7.7,7.7,316,55.6124546769857,11.7771067067769,4340,150.0,"Tølløse Privat- og Efterskole, Baptisternes Efterskoler",Efterskoler,Efterskoler,"(55.6124546769857, 11.7771067067769)"
523,351301,6.1,6.9,320,55.204899042717294,12.146959931751699,4654,91.0,Faxehus Efterskole,Efterskoler,Efterskoler,"(55.204899042717294, 12.146959931751699)"
524,359006,4.6,5.3,360,54.7795302778823,11.298326833688801,4920,71.0,Reventlow Lilleskole,Grundskoler,Friskoler og private grundskoler,"(54.7795302778823, 11.298326833688801)"
525,359302,6.2,6.8,360,54.8490910135613,11.235101041912902,4900,163.0,Halstedhus Efterskole,Efterskoler,Efterskoler,"(54.8490910135613, 11.235101041912902)"
526,361005,8.0,7.7,390,55.0372668633823,12.019161820465099,4735,188.0,Friskolen Øster Egesborg,Grundskoler,Friskoler og private grundskoler,"(55.0372668633823, 12.019161820465099)"
527,363009,7.8,7.5,360,54.7747641726968,11.509800005909,4930,472.0,Sankt Birgitta Skole,Grundskoler,Friskoler og private grundskoler,"(54.7747641726968, 11.509800005909)"
528,365008,6.0,6.7,390,54.9205358354309,12.0445522779687,4793,279.0,Bogø Kostskole,Grundskoler,Friskoler og private grundskoler,"(54.9205358354309, 12.0445522779687)"
529,365012,7.8,7.5,390,54.9389706697575,12.2190223245998,4780,195.0,Møn Friskole,Grundskoler,Friskoler og private grundskoler,"(54.9389706697575, 12.2190223245998)"
530,365302,6.7,7.0,390,54.9205358354309,12.0445522779687,4793,136.0,Idrætsefterskolen Grønsund,Efterskoler,Efterskoler,"(54.9205358354309, 12.0445522779687)"
531,367001,5.9,5.7,360,54.8327445063581,11.1342317813384,4900,544.0,"Distriktsskolen Vest, Byskoleafdelingen",Grundskoler,Folkeskoler,"(54.8327445063581, 11.1342317813384)"
532,367005,6.0,6.2,360,54.837566933466796,11.154704036810601,4900,567.0,"Distriktsskolen Vest, Stormarkafdelingen",Grundskoler,Folkeskoler,"(54.837566933466796, 11.154704036810601)"
533,367006,8.1,7.7,360,54.832532618036005,11.135902839931,4900,296.0,Privatskolen Nakskov,Grundskoler,Friskoler og private grundskoler,"(54.832532618036005, 11.135902839931)"
534,367007,6.4,6.8,360,54.8327090632653,11.137936392002699,4900,279.0,Stenoskolen,Grundskoler,Friskoler og private grundskoler,"(54.8327090632653, 11.137936392002699)"
535,369002,6.5,6.7,376,54.774043340666196,11.8777343826404,4800,833.0,Sophieskolen,Grundskoler,Folkeskoler,"(54.774043340666196, 11.8777343826404)"
536,369005,6.6,6.7,376,54.76215336857929,11.8448932741895,4800,547.0,SUNDskolen,Grundskoler,Folkeskoler,"(54.76215336857929, 11.8448932741895)"
537,369008,7.2,7.0,376,54.7602505254327,11.879190402562802,4800,506.0,Østre Skole,Grundskoler,Folkeskoler,"(54.7602505254327, 11.879190402562802)"
538,369009,6.2,5.7,376,54.7536461205954,11.893968232592302,4800,199.0,Lindeskovskolen,Grundskoler,Folkeskoler,"(54.7536461205954, 11.893968232592302)"
539,369010,8.1,8.0,376,54.7686387046545,11.872371339498901,4800,392.0,Nykøbing F Realskole,Grundskoler,Friskoler og private grundskoler,"(54.7686387046545, 11.872371339498901)"
540,369011,8.1,7.4,376,54.764186054759996,11.877534851616302,4800,315.0,Sct. Joseph Søstrenes Skole,Grundskoler,Friskoler og private grundskoler,"(54.764186054759996, 11.877534851616302)"
541,369018,6.5,6.9,376,54.801920379220704,11.8826732292291,4800,469.0,Nordbyskolen,Grundskoler,Folkeskoler,"(54.801920379220704, 11.8826732292291)"
542,370001,4.8,4.9,370,55.211577578539604,11.7461362264241,4700,109.0,Friskolen af 2008,Grundskoler,Friskoler og private grundskoler,"(55.211577578539604, 11.7461362264241)"
543,371004,6.2,6.1,376,54.659024439682504,11.741978496861401,4880,418.0,Nysted Skole,Grundskoler,Folkeskoler,"(54.659024439682504, 11.741978496861401)"
544,371300,3.4,5.0,376,54.660160027515204,11.7345630681783,4880,105.0,Nysted Efterskole,Efterskoler,Efterskoler,"(54.660160027515204, 11.7345630681783)"
545,373018,8.0,7.6,370,55.2262220642248,11.767097493322899,4700,438.0,Vor Frue Skole,Grundskoler,Friskoler og private grundskoler,"(55.2262220642248, 11.767097493322899)"
546,373024,8.8,8.0,370,55.2458162,11.74633787,4700,258.0,Herlufsholm Skole og Gods,Grundskoler,Friskoler og private grundskoler,"(55.2458162, 11.74633787)"
547,373030,7.9,7.9,370,55.2812058979645,11.732584581807401,4700,120.0,Næstved Fri Skole,Grundskoler,Friskoler og private grundskoler,"(55.2812058979645, 11.732584581807401)"
548,373300,8.1,8.1,370,55.1702871498544,11.766909974900901,4700,143.0,Svenstrup Efterskole,Efterskoler,Efterskoler,"(55.1702871498544, 11.766909974900901)"
549,375001,6.8,7.0,376,54.8955546150778,11.881174696944699,4840,368.0,Nr Alslev Skole,Grundskoler,Folkeskoler,"(54.8955546150778, 11.881174696944699)"
550,375003,6.2,6.2,376,54.9288468795029,11.8375114577477,4840,217.0,Nr. Vedby skole & Børnehus,Grundskoler,Folkeskoler,"(54.9288468795029, 11.8375114577477)"
551,375004,5.6,5.8,376,54.8569517325445,11.8714761350242,4863,306.0,Eskilstrup Skole,Grundskoler,Folkeskoler,"(54.8569517325445, 11.8714761350242)"
552,375005,5.9,5.9,376,54.919296262808196,11.9511574012216,4840,104.0,Skovby Friskole,Grundskoler,Friskoler og private grundskoler,"(54.919296262808196, 11.9511574012216)"
553,379004,6.4,6.2,360,54.907580628922204,11.218674174019899,4913,168.0,"Distriktsskolen Vest, Ravnsborgafdelingen",Grundskoler,Folkeskoler,"(54.907580628922204, 11.218674174019899)"
554,379008,7.1,7.0,360,54.911681138285104,11.217668354610801,4913,181.0,Horslunde Realskole,Grundskoler,Friskoler og private grundskoler,"(54.911681138285104, 11.217668354610801)"
555,383002,5.4,5.7,360,54.696600093926705,11.385823308306598,4970,385.0,"Distriktsskolen Øst, Rødbyafdelingen",Grundskoler,Folkeskoler,"(54.696600093926705, 11.385823308306598)"
556,383300,4.7,5.8,360,54.66858575320639,11.338827794611099,4970,191.0,Bindernæs Efterskole,Efterskoler,Efterskoler,"(54.66858575320639, 11.338827794611099)"
557,385004,8.6,7.7,320,55.3132542382382,12.095841519191,4682,194.0,Druestrup Friskole,Grundskoler,Friskoler og private grundskoler,"(55.3132542382382, 12.095841519191)"
558,387005,6.8,6.8,376,54.7977656524661,11.6233542931262,4990,359.0,Sakskøbing Skole,Grundskoler,Folkeskoler,"(54.7977656524661, 11.6233542931262)"
559,389008,6.1,6.3,336,55.314785208768704,12.385756835947198,4660,570.0,Store Heddinge Skole,Grundskoler,Folkeskoler,"(55.314785208768704, 12.385756835947198)"
560,389009,7.4,7.2,336,55.25799905534121,12.3787923741178,4673,172.0,Stevns Friskole,Grundskoler,Friskoler og private grundskoler,"(55.25799905534121, 12.3787923741178)"
561,389300,7.4,7.5,336,55.27219907368521,12.3241603660195,4660,179.0,Gymnastikefterskolen Stevns,Efterskoler,Efterskoler,"(55.27219907368521, 12.3241603660195)"
562,391002,5.8,6.2,376,54.8004954460264,11.9926354245102,4800,183.0,Møllebakkeskolen,Grundskoler,Folkeskoler,"(54.8004954460264, 11.9926354245102)"
563,391003,6.4,6.3,376,54.8893483098725,12.037653992079802,4850,252.0,Stubbekøbing Skole,Grundskoler,Folkeskoler,"(54.8893483098725, 12.037653992079802)"
564,391300,6.6,7.2,376,54.868173263154105,12.1152019712643,4850,146.0,Næsgaard Efterskole,Efterskoler,Efterskoler,"(54.868173263154105, 12.1152019712643)"
565,395002,6.3,6.1,376,54.709308892766295,11.9194489224436,4873,232.0,Sydfalster Skole,Grundskoler,Folkeskoler,"(54.709308892766295, 11.9194489224436)"
566,397303,5.8,6.1,390,55.106265910480204,11.869565858245899,4750,56.0,Lundby Efterskole,Efterskoler,Efterskoler,"(55.106265910480204, 11.869565858245899)"
567,400001,7.2,7.2,400,55.283627352248104,14.7922039599043,3770,234.0,Kongeskærskolen,Grundskoler,Folkeskoler,"(55.283627352248104, 14.7922039599043)"
568,400006,7.2,7.4,400,55.1642195045095,14.9698652198711,3760,142.0,Friskolen Østerlars,Grundskoler,Friskoler og private grundskoler,"(55.1642195045095, 14.9698652198711)"
569,400014,7.2,6.4,400,55.0673926473094,15.1239753583562,3730,519.0,Paradisbakkeskolen,Grundskoler,Folkeskoler,"(55.0673926473094, 15.1239753583562)"
570,400018,6.1,6.6,400,55.0926010816326,14.722906163825801,3700,515.0,"Rønneskolen, afdeling Søndermark",Grundskoler,Folkeskoler,"(55.0926010816326, 14.722906163825801)"
571,400020,6.4,6.6,400,55.1077681551089,14.709751080692898,3700,670.0,Aavangsskolen,Grundskoler,Folkeskoler,"(55.1077681551089, 14.709751080692898)"
572,400021,7.8,7.7,400,55.0982217754126,14.7032929006073,3700,341.0,Rønne Privatskole,Grundskoler,Friskoler og private grundskoler,"(55.0982217754126, 14.7032929006073)"
573,400024,7.8,7.6,400,55.124088926073796,14.7416720941652,3700,201.0,"Peterskolen, Rønne Kristne Friskole",Grundskoler,Friskoler og private grundskoler,"(55.124088926073796, 14.7416720941652)"
574,400034,8.1,7.5,400,55.069166228971795,14.923020926712198,3720,208.0,Davidskolen,Grundskoler,Friskoler og private grundskoler,"(55.069166228971795, 14.923020926712198)"
575,400037,8.1,7.4,400,55.14069313140121,14.7592834676684,3700,204.0,Bornholms Frie Idrætsskole,Grundskoler,Friskoler og private grundskoler,"(55.14069313140121, 14.7592834676684)"
576,400038,6.7,6.8,400,55.028926880839,14.9815820515889,3720,96.0,Sydbornholms Privatskole,Grundskoler,Friskoler og private grundskoler,"(55.028926880839, 14.9815820515889)"
577,400042,6.5,6.6,400,55.07217656466471,14.916313696472699,3720,396.0,Hans Rømer Skolen,Grundskoler,Folkeskoler,"(55.07217656466471, 14.916313696472699)"
578,400301,5.1,5.3,400,55.12104112768171,14.704278348692,3700,39.0,Bornholms Efterskole,Efterskoler,Efterskoler,"(55.12104112768171, 14.704278348692)"
579,421003,6.5,6.4,420,55.241372953130295,9.975771239712449,5631,277.0,Ebberup Skole,Grundskoler,Folkeskoler,"(55.241372953130295, 9.975771239712449)"
580,421007,8.4,7.6,420,55.268643016098096,9.892977777302288,5610,340.0,Strandmølleskolen,Grundskoler,Friskoler og private grundskoler,"(55.268643016098096, 9.892977777302288)"
581,421009,6.8,6.1,420,55.273770869272205,9.90386968827783,5610,373.0,Assensskolen,Grundskoler,Folkeskoler,"(55.273770869272205, 9.90386968827783)"
582,423001,5.9,6.3,480,55.566278337496996,10.0934474898741,5400,553.0,Bogense Skole,Grundskoler,Folkeskoler,"(55.566278337496996, 10.0934474898741)"
583,425005,7.7,7.3,430,55.2505106193776,10.2212601276176,5672,202.0,Broby Fri- og Efterskole,Grundskoler,Friskoler og private grundskoler,"(55.2505106193776, 10.2212601276176)"
584,425300,5.4,6.4,430,55.2505106193776,10.2212601276176,5672,139.0,Broby Fri- og Efterskole,Efterskoler,Efterskoler,"(55.2505106193776, 10.2212601276176)"
586,427010,7.5,7.6,479,55.0746750252811,10.435302164302,5762,227.0,Vester Skerninge Friskole,Grundskoler,Friskoler og private grundskoler,"(55.0746750252811, 10.435302164302)"
587,429001,6.7,6.8,410,55.4814864622688,9.97911717549699,5464,222.0,Anna Trolles Skole,Grundskoler,Folkeskoler,"(55.4814864622688, 9.97911717549699)"
588,429002,5.8,6.5,410,55.434336087198105,9.93843797397714,5592,391.0,Ejby Skole,Grundskoler,Folkeskoler,"(55.434336087198105, 9.93843797397714)"
589,429006,8.4,7.7,410,55.489994414826,9.97375765980014,5464,351.0,Brenderup og Omegns Realskole,Grundskoler,Friskoler og private grundskoler,"(55.489994414826, 9.97375765980014)"
590,431300,8.1,8.1,430,55.1624664885486,10.383881204332699,5600,227.0,Bernstorffsminde Efterskole,Efterskoler,Efterskoler,"(55.1624664885486, 10.383881204332699)"
591,431301,6.1,6.5,430,55.14467627135429,10.3323583154972,5600,47.0,Korinth Efterskole,Efterskoler,Efterskoler,"(55.14467627135429, 10.3323583154972)"
592,431304,6.6,7.1,430,55.1029785510361,10.1805146215223,5600,126.0,Faaborgegnens Efterskole,Efterskoler,Efterskoler,"(55.1029785510361, 10.1805146215223)"
593,433003,7.4,7.1,420,55.274709217872804,10.109493932581199,5620,590.0,Glamsbjergskolen,Grundskoler,Folkeskoler,"(55.274709217872804, 10.109493932581199)"
594,433005,7.2,7.0,420,55.28341827319,10.110368964544302,5620,202.0,Glamsbjerg Fri-og Efterskole,Grundskoler,Friskoler og private grundskoler,"(55.28341827319, 10.110368964544302)"
595,433008,6.0,6.2,420,55.269625864515895,10.1152403463919,5620,99.0,Køng Idrætsfriskole,Grundskoler,Friskoler og private grundskoler,"(55.269625864515895, 10.1152403463919)"
596,433300,7.5,7.6,420,55.28341827319,10.110368964544302,5620,68.0,Glamsbjerg Fri- og Efterskole,Efterskoler,Efterskoler,"(55.28341827319, 10.110368964544302)"
597,433303,7.3,7.4,420,55.271405314801704,10.114248212264199,5620,309.0,Glamsdalens Idrætsefterskole,Efterskoler,Efterskoler,"(55.271405314801704, 10.114248212264199)"
598,435006,4.7,5.5,479,55.120982779177396,10.7267732772785,5883,89.0,Oure Friskole,Grundskoler,Friskoler og private grundskoler,"(55.120982779177396, 10.7267732772785)"
599,435300,6.9,7.5,479,55.110103002338,10.7345945211433,5882,246.0,Vejstrup Efterskole,Efterskoler,Efterskoler,"(55.110103002338, 10.7345945211433)"
601,437002,7.8,7.1,420,55.2218235803494,10.125489872854,5683,345.0,Hårby Skole,Grundskoler,Folkeskoler,"(55.2218235803494, 10.125489872854)"
602,439001,7.5,7.2,440,55.51790680025889,10.658261460946198,5380,295.0,Hindsholms børn & unge,Grundskoler,Folkeskoler,"(55.51790680025889, 10.658261460946198)"
603,439006,7.7,7.2,440,55.410795053823,10.5956733897267,5300,362.0,Nymarken Skole og Børnehus,Grundskoler,Folkeskoler,"(55.410795053823, 10.5956733897267)"
604,439007,6.7,7.2,440,55.41942429052771,10.6537940118002,5300,237.0,Kertemindeegnens Friskole,Grundskoler,Friskoler og private grundskoler,"(55.41942429052771, 10.6537940118002)"
605,439300,6.5,7.0,440,55.465962677675,10.6135426370142,5300,110.0,Kerteminde Efterskole,Efterskoler,Efterskoler,"(55.465962677675, 10.6135426370142)"
606,441002,7.7,7.0,440,55.355506373588895,10.6003033720958,5550,630.0,Langeskov Skole,Grundskoler,Folkeskoler,"(55.355506373588895, 10.6003033720958)"
607,443002,7.2,7.1,492,54.8564842976439,10.5097625668119,5960,431.0,Marstal Skole,Grundskoler,Folkeskoler,"(54.8564842976439, 10.5097625668119)"
608,445002,6.4,6.6,410,55.4855457719436,9.78658393441898,5500,337.0,Hyllehøjskolen,Grundskoler,Folkeskoler,"(55.4855457719436, 9.78658393441898)"
609,445003,7.9,7.8,410,55.5386431702286,9.7742114389937,5500,641.0,Strib Skole,Grundskoler,Folkeskoler,"(55.5386431702286, 9.7742114389937)"
610,445004,7.0,7.3,410,55.5046122341385,9.729542579970401,5500,320.0,Vestre Skole,Grundskoler,Folkeskoler,"(55.5046122341385, 9.729542579970401)"
611,445005,7.6,7.1,410,55.500077931335404,9.74169488824609,5500,475.0,Østre Skole,Grundskoler,Folkeskoler,"(55.500077931335404, 9.74169488824609)"
612,445008,8.1,7.8,410,55.493854085841704,9.74876847390725,5500,521.0,Lillebæltskolen,Grundskoler,Folkeskoler,"(55.493854085841704, 9.74876847390725)"
613,445010,6.0,6.4,410,55.499902107147705,9.72318121375711,5500,172.0,Fænøsund Friskole,Grundskoler,Friskoler og private grundskoler,"(55.499902107147705, 9.72318121375711)"
614,445302,5.2,6.2,410,55.537002666061404,9.801818593020029,5500,120.0,Billeshave Efterskole,Efterskoler,Efterskoler,"(55.537002666061404, 9.801818593020029)"
615,449002,6.2,6.9,450,55.313946753890804,10.7978860679214,5800,503.0,Birkhovedskolen,Grundskoler,Folkeskoler,"(55.313946753890804, 10.7978860679214)"
616,449007,5.8,6.3,450,55.3217814678337,10.779568085955699,5800,711.0,Danehofskolen,Grundskoler,Folkeskoler,"(55.3217814678337, 10.779568085955699)"
617,449008,8.2,7.9,450,55.311383141579896,10.798296204507599,5800,417.0,Nyborg Private Realskole,Grundskoler,Friskoler og private grundskoler,"(55.311383141579896, 10.798296204507599)"
618,449009,8.0,7.8,450,55.308653673235504,10.7829505776994,5800,373.0,Nyborg Friskole,Grundskoler,Friskoler og private grundskoler,"(55.308653673235504, 10.7829505776994)"
619,449300,6.7,7.2,450,55.32245108248551,10.7820023322876,5800,161.0,Efterskolen ved Nyborg,Efterskoler,Efterskoler,"(55.32245108248551, 10.7820023322876)"
620,451002,6.5,6.2,410,55.45287768545779,9.86903617076002,5580,370.0,Nørre Aaby Skole,Grundskoler,Folkeskoler,"(55.45287768545779, 9.86903617076002)"
621,451003,8.0,7.7,410,55.460423917994206,9.86801788468452,5580,430.0,Nørre Aaby Realskole,Grundskoler,Friskoler og private grundskoler,"(55.460423917994206, 9.86801788468452)"
622,451300,6.4,6.8,410,55.4548684248392,9.8890417098819,5580,126.0,Nørre Aaby Efterskole,Efterskoler,Efterskoler,"(55.4548684248392, 9.8890417098819)"
623,451301,7.0,7.4,410,55.4607270706409,9.82275630657511,5580,112.0,Vesterdal Efterskole,Efterskoler,Efterskoler,"(55.4607270706409, 9.82275630657511)"
624,451304,8.0,8.0,410,55.4580717602382,9.873564475742949,5580,110.0,Eisbjerghus Internationale Efterskole,Efterskoler,Efterskoler,"(55.4580717602382, 9.873564475742949)"
625,461001,5.9,6.3,461,55.430453981339504,10.481163954495198,5320,473.0,Agedrup Skole,Grundskoler,Folkeskoler,"(55.430453981339504, 10.481163954495198)"
626,461003,7.0,7.3,461,55.3582541316934,10.3795727255795,5260,556.0,Dalumskolen,Grundskoler,Folkeskoler,"(55.3582541316934, 10.3795727255795)"
627,461007,6.9,7.3,461,55.3611532303063,10.3994059227823,5260,574.0,Hjalleseskolen,Grundskoler,Folkeskoler,"(55.3611532303063, 10.3994059227823)"
628,461008,8.1,8.0,461,55.3868218400562,10.3718157797065,5000,650.0,Hunderupskolen,Grundskoler,Folkeskoler,"(55.3868218400562, 10.3718157797065)"
629,461009,7.0,7.2,461,55.332948816895104,10.4412336415434,5260,363.0,Højby Skole,Grundskoler,Folkeskoler,"(55.332948816895104, 10.4412336415434)"
630,461010,5.7,6.7,461,55.351940868428,10.338796137754,5250,587.0,Højmeskolen,Grundskoler,Folkeskoler,"(55.351940868428, 10.338796137754)"
631,461013,6.6,6.9,461,55.420040003908206,10.266140026226,5210,486.0,Korup Skole,Grundskoler,Folkeskoler,"(55.420040003908206, 10.266140026226)"
632,461014,6.7,6.0,461,55.3865292650224,10.417130531336198,5230,501.0,Ejerslykkeskolen,Grundskoler,Folkeskoler,"(55.3865292650224, 10.417130531336198)"
633,461015,7.2,7.1,461,55.4249272617266,10.350799610756098,5270,644.0,Kroggårdsskolen,Grundskoler,Folkeskoler,"(55.4249272617266, 10.350799610756098)"
634,461017,6.9,7.1,461,55.3863936260693,10.398569226320198,5230,590.0,Munkebjergskolen,Grundskoler,Folkeskoler,"(55.3863936260693, 10.398569226320198)"
635,461018,6.0,6.7,461,55.4168927051385,10.3577823322391,5270,366.0,Næsby Skole,Grundskoler,Folkeskoler,"(55.4168927051385, 10.3577823322391)"
636,461019,7.7,7.3,461,55.391986841510295,10.339995801657698,5200,672.0,Provstegårdskolen,Grundskoler,Folkeskoler,"(55.391986841510295, 10.339995801657698)"
637,461020,6.4,7.1,461,55.4084805877178,10.3153049690984,5210,764.0,Paarup Skole,Grundskoler,Folkeskoler,"(55.4084805877178, 10.3153049690984)"
638,461021,7.9,7.3,461,55.343182279017704,10.2920672120874,5250,410.0,Rasmus Rask-Skolen,Grundskoler,Folkeskoler,"(55.343182279017704, 10.2920672120874)"
639,461022,5.7,5.6,461,55.4079082173259,10.4138370973032,5000,769.0,Risingskolen,Grundskoler,Folkeskoler,"(55.4079082173259, 10.4138370973032)"
640,461023,7.9,7.6,461,55.3692162903776,10.3470593309445,5250,717.0,Sanderumskolen,Grundskoler,Folkeskoler,"(55.3692162903776, 10.3470593309445)"
641,461024,6.8,7.2,461,55.41474288676871,10.3966528028556,5000,699.0,Sct Hans Skole,Grundskoler,Folkeskoler,"(55.41474288676871, 10.3966528028556)"
642,461025,6.2,6.3,461,55.4265140630445,10.4455372161955,5240,614.0,Seden Skole,Grundskoler,Folkeskoler,"(55.4265140630445, 10.4455372161955)"
643,461026,7.0,7.3,461,55.3357068850455,10.3453907026905,5260,414.0,Skt Klemensskolen,Grundskoler,Folkeskoler,"(55.3357068850455, 10.3453907026905)"
644,461030,7.0,7.3,461,55.4095561177683,10.350340640385099,5210,698.0,Tarup Skole,Grundskoler,Folkeskoler,"(55.4095561177683, 10.350340640385099)"
645,461031,6.9,6.8,461,55.3403621044986,10.502337773617,5220,382.0,Tingkærskolen,Grundskoler,Folkeskoler,"(55.3403621044986, 10.502337773617)"
646,461032,7.8,7.8,461,55.368609802879,10.366488212647,5250,787.0,Tingløkkeskolen,Grundskoler,Folkeskoler,"(55.368609802879, 10.366488212647)"
647,461034,7.2,7.2,461,55.3958964583195,10.2541240395181,5491,369.0,Ubberud Skole,Grundskoler,Folkeskoler,"(55.3958964583195, 10.2541240395181)"
648,461035,5.9,6.1,461,55.39354491590839,10.374035028189,5000,351.0,Vestre Skole,Grundskoler,Folkeskoler,"(55.39354491590839, 10.374035028189)"
649,461038,6.9,6.6,461,55.3792294816974,10.423962207866401,5230,681.0,Rosengårdskolen,Grundskoler,Folkeskoler,"(55.3792294816974, 10.423962207866401)"
650,461039,5.7,5.5,461,55.4097882646929,10.4289090992824,5240,424.0,Abildgårdskolen,Grundskoler,Folkeskoler,"(55.4097882646929, 10.4289090992824)"
651,461040,8.6,8.1,461,55.39198627727329,10.389767460860801,5000,735.0,Giersings Realskole,Grundskoler,Friskoler og private grundskoler,"(55.39198627727329, 10.389767460860801)"
652,461041,6.7,6.8,461,55.338323032051704,10.4321061313356,5260,218.0,Højby Friskole,Grundskoler,Friskoler og private grundskoler,"(55.338323032051704, 10.4321061313356)"
653,461042,8.8,8.4,461,55.3991264122626,10.382517662949901,5000,642.0,Henriette Hørlucks Skole,Grundskoler,Friskoler og private grundskoler,"(55.3991264122626, 10.382517662949901)"
654,461043,9.0,8.1,461,55.3996115401926,10.3873340247007,5000,421.0,Marie Jørgensens Skole,Grundskoler,Friskoler og private grundskoler,"(55.3996115401926, 10.3873340247007)"
655,461044,7.9,7.9,461,55.3920226960252,10.397155467019301,5000,524.0,Odense Friskole,Grundskoler,Friskoler og private grundskoler,"(55.3920226960252, 10.397155467019301)"
656,461045,7.4,7.4,461,55.396566555792596,10.391420046446099,5000,242.0,Sct. Albani Skole,Grundskoler,Friskoler og private grundskoler,"(55.396566555792596, 10.391420046446099)"
657,461046,7.7,7.7,461,55.4382520821888,10.3981827524802,5270,213.0,Stige Friskole,Grundskoler,Friskoler og private grundskoler,"(55.4382520821888, 10.3981827524802)"
