,institutionsnummer,Karakter,Soc_ref,beliggenhedskommunenr,lat,lon,postnr,navn,institutionstype2,institutionstype3,coordinates
0,101001,8.2,8.0,101,55.6729159978565,12.575738616700999,1552,Den Classenske Legatskole,Grundskoler,Folkeskoler,"(55.6729159978565, 12.575738616700999)"
1,101003,7.6,7.7,101,55.69057241088161,12.5862454099148,1350,Nyboder Skole,Grundskoler,Folkeskoler,"(55.69057241088161, 12.5862454099148)"
2,101005,7.0,7.6,101,55.686493209469496,12.5832427650795,1307,Sølvgades Skole,Grundskoler,Folkeskoler,"(55.686493209469496, 12.5832427650795)"
3,101007,5.1,5.8,101,55.6902881167035,12.544704464126301,2200,Nørrebro Park Skole,Grundskoler,Folkeskoler,"(55.6902881167035, 12.544704464126301)"
4,101008,5.7,6.0,101,55.687825641869004,12.550209992394901,2200,Blågård Skole,Grundskoler,Folkeskoler,"(55.687825641869004, 12.550209992394901)"
5,101011,6.7,7.1,101,55.704386340680706,12.508446326404,2700,Bellahøj Skole,Grundskoler,Folkeskoler,"(55.704386340680706, 12.508446326404)"
6,101012,6.7,7.2,101,55.704169199945405,12.4947869758271,2700,Brønshøj Skole,Grundskoler,Folkeskoler,"(55.704169199945405, 12.4947869758271)"
7,101017,6.5,6.7,101,55.7060885641584,12.473761688803698,2700,Husum Skole,Grundskoler,Folkeskoler,"(55.7060885641584, 12.473761688803698)"
8,101018,7.9,7.8,101,55.6848392747371,12.4815099396248,2720,Hyltebjerg Skole,Grundskoler,Folkeskoler,"(55.6848392747371, 12.4815099396248)"
9,101019,8.0,7.9,101,55.690223062739,12.4987635776381,2720,Katrinedals Skole,Grundskoler,Folkeskoler,"(55.690223062739, 12.4987635776381)"
10,101020,7.3,7.6,101,55.696308780138,12.482887762769302,2720,Kirkebjerg Skole,Grundskoler,Folkeskoler,"(55.696308780138, 12.482887762769302)"
11,101021,6.5,6.3,101,55.7095599787281,12.4693256156746,2700,Korsager Skole,Grundskoler,Folkeskoler,"(55.7095599787281, 12.4693256156746)"
12,101022,7.2,7.0,101,55.697004850485705,12.507010821589802,2720,Rødkilde Skole,Grundskoler,Folkeskoler,"(55.697004850485705, 12.507010821589802)"
13,101023,5.1,5.5,101,55.7190877977116,12.484466885778401,2700,Tingbjerg Skole,Grundskoler,Folkeskoler,"(55.7190877977116, 12.484466885778401)"
14,101024,7.8,7.2,101,55.6864665871815,12.4816166015543,2720,Vanløse Skole,Grundskoler,Folkeskoler,"(55.6864665871815, 12.4816166015543)"
15,101029,6.1,5.7,101,55.7097800671489,12.533511075824,2400,Tagensbo Skole,Grundskoler,Folkeskoler,"(55.7097800671489, 12.533511075824)"
16,101030,6.2,6.5,101,55.724450197991295,12.5287620322137,2400,Holbergskolen,Grundskoler,Folkeskoler,"(55.724450197991295, 12.5287620322137)"
17,101034,5.2,5.6,101,55.699025080831206,12.5495949937569,2200,Rådmandsgades Skole,Grundskoler,Folkeskoler,"(55.699025080831206, 12.5495949937569)"
18,101035,6.8,7.3,101,55.693185103816205,12.5531439907036,2200,Guldberg Skole,Grundskoler,Folkeskoler,"(55.693185103816205, 12.5531439907036)"
19,101039,8.3,8.1,101,55.7057827485052,12.5807941283846,2100,Randersgades Skole,Grundskoler,Folkeskoler,"(55.7057827485052, 12.5807941283846)"
20,101041,6.8,7.3,101,55.71124434353129,12.579208584077598,2100,Strandvejsskolen,Grundskoler,Folkeskoler,"(55.71124434353129, 12.579208584077598)"
21,101042,7.0,7.1,101,55.7087556166683,12.5788239345057,2100,Vibenshus Skole,Grundskoler,Folkeskoler,"(55.7087556166683, 12.5788239345057)"
22,101043,7.9,7.9,101,55.692564602145005,12.5775684168944,2100,Øster Farimagsgades Skole,Grundskoler,Folkeskoler,"(55.692564602145005, 12.5775684168944)"
23,101045,6.9,6.7,101,55.7053610702465,12.5581524982066,2100,Nørre Fælled Skole,Grundskoler,Folkeskoler,"(55.7053610702465, 12.5581524982066)"
24,101047,7.3,7.6,101,55.674008557273595,12.596668921721498,1422,Christianshavns Skole,Grundskoler,Folkeskoler,"(55.674008557273595, 12.596668921721498)"
25,101050,5.4,5.7,101,55.6631089602849,12.6088427991237,2300,Skolen på Amagerbro,Grundskoler,Folkeskoler,"(55.6631089602849, 12.6088427991237)"
26,101052,6.8,7.0,101,55.6467457419843,12.603824731219401,2300,Højdevangens Skole,Grundskoler,Folkeskoler,"(55.6467457419843, 12.603824731219401)"
27,101053,7.6,7.8,101,55.6532315899916,12.628020114748399,2300,Skolen ved Sundet,Grundskoler,Folkeskoler,"(55.6532315899916, 12.628020114748399)"
28,101058,7.0,6.8,101,55.664994202965495,12.613406966616399,2300,Lergravsparkens Skole,Grundskoler,Folkeskoler,"(55.664994202965495, 12.613406966616399)"
29,101059,7.1,7.3,101,55.6629241401929,12.583199412125799,2300,Skolen på Islands Brygge,Grundskoler,Folkeskoler,"(55.6629241401929, 12.583199412125799)"
30,101060,5.9,6.0,101,55.655356332401894,12.596598560878999,2300,Peder Lykke Skolen,Grundskoler,Folkeskoler,"(55.655356332401894, 12.596598560878999)"
31,101062,7.5,6.8,101,55.6578964166001,12.5356498902901,2450,Bavnehøj Skole,Grundskoler,Folkeskoler,"(55.6578964166001, 12.5356498902901)"
32,101063,6.0,5.8,101,55.6510747055513,12.531610607486801,2450,Ellebjerg Skole,Grundskoler,Folkeskoler,"(55.6510747055513, 12.531610607486801)"
33,101064,6.8,7.2,101,55.6664515798549,12.5449517678894,1670,Tove Ditlevsens Skole,Grundskoler,Folkeskoler,"(55.6664515798549, 12.5449517678894)"
34,101069,7.2,7.3,101,55.667596755247494,12.550323216110101,1663,Oehlenschlægersgades Skole,Grundskoler,Folkeskoler,"(55.667596755247494, 12.550323216110101)"
35,101070,7.1,7.6,101,55.666652912372896,12.486321625850401,2500,Hanssted Skole,Grundskoler,Folkeskoler,"(55.666652912372896, 12.486321625850401)"
36,101071,6.5,6.5,101,55.649156789376605,12.501983122535801,2500,Kirsebærhavens Skole,Grundskoler,Folkeskoler,"(55.649156789376605, 12.501983122535801)"
37,101072,6.4,6.0,101,55.6601006734379,12.484063677139199,2500,Lykkebo Skole,Grundskoler,Folkeskoler,"(55.6601006734379, 12.484063677139199)"
38,101074,6.3,6.5,101,55.6651536990499,12.509108238038301,2500,Valby Skole,Grundskoler,Folkeskoler,"(55.6651536990499, 12.509108238038301)"
39,101075,6.6,6.5,101,55.661452474609604,12.5080916879191,2500,Vigerslev Allés Skole,Grundskoler,Folkeskoler,"(55.661452474609604, 12.5080916879191)"
40,101076,5.3,6.1,101,55.6700885940723,12.495058522832698,2500,Ålholm Skole,Grundskoler,Folkeskoler,"(55.6700885940723, 12.495058522832698)"
41,101078,7.5,7.6,101,55.7222505426711,12.5577468810455,2100,Carolineskolen,Grundskoler,Friskoler og private grundskoler,"(55.7222505426711, 12.5577468810455)"
42,101079,8.1,8.2,101,55.6732833108904,12.593893093146301,1420,Christianshavns Døttreskole,Grundskoler,Friskoler og private grundskoler,"(55.6732833108904, 12.593893093146301)"
43,101080,6.7,6.2,101,55.683976258937996,12.5667857706436,1364,Det Kgl Vaisenhus Skole,Grundskoler,Friskoler og private grundskoler,"(55.683976258937996, 12.5667857706436)"
44,101081,8.6,8.2,101,55.6941915753893,12.582307786777198,2100,Institut Sankt Joseph,Grundskoler,Friskoler og private grundskoler,"(55.6941915753893, 12.582307786777198)"
45,101082,7.1,7.1,101,55.68824371888821,12.5593533207393,2200,Sankt Ansgars Skole,Grundskoler,Friskoler og private grundskoler,"(55.68824371888821, 12.5593533207393)"
46,101083,9.6,8.7,101,55.689790970187595,12.5755962794031,2100,Krebs' Skole,Grundskoler,Friskoler og private grundskoler,"(55.689790970187595, 12.5755962794031)"
47,101084,7.2,7.1,101,55.653833385258295,12.6071414814094,2300,Sankt Annæ Skole,Grundskoler,Friskoler og private grundskoler,"(55.653833385258295, 12.6071414814094)"
48,101086,7.6,8.1,101,55.6941743205278,12.576322905164199,2100,Bordings Friskole,Grundskoler,Friskoler og private grundskoler,"(55.6941743205278, 12.576322905164199)"
49,101088,8.8,8.5,101,55.6827235384127,12.569256361673999,1361,N. Zahles Seminarieskole,Grundskoler,Friskoler og private grundskoler,"(55.6827235384127, 12.569256361673999)"
50,101089,8.2,8.2,101,55.6797379385099,12.569634084038999,1451,Sankt Petri Skole,Grundskoler,Friskoler og private grundskoler,"(55.6797379385099, 12.569634084038999)"
51,101091,8.4,8.2,101,55.6624030145113,12.6318796858562,2300,"Hovedstadens Privatskole, Filipskolen",Grundskoler,Friskoler og private grundskoler,"(55.6624030145113, 12.6318796858562)"
52,101092,6.8,7.1,101,55.6513244813005,12.6173567016551,2300,Amager Lille Skole,Grundskoler,Friskoler og private grundskoler,"(55.6513244813005, 12.6173567016551)"
53,101111,7.3,7.8,101,55.6581068147651,12.5058890928141,2500,Byens Skole,Grundskoler,Friskoler og private grundskoler,"(55.6581068147651, 12.5058890928141)"
54,101127,8.9,8.3,101,55.6905667947849,12.5757787098614,2100,Øbro Fri Skole,Grundskoler,Friskoler og private grundskoler,"(55.6905667947849, 12.5757787098614)"
55,101129,7.8,7.2,101,55.6490176110893,12.634056163366198,2300,Landsbyskolen,Grundskoler,Friskoler og private grundskoler,"(55.6490176110893, 12.634056163366198)"
56,101132,7.3,7.5,101,55.694188850303796,12.551259126975,2200,Nørrebro Lilleskole,Grundskoler,Friskoler og private grundskoler,"(55.694188850303796, 12.551259126975)"
57,101133,7.0,7.5,101,55.6660022996429,12.5064141973877,2500,Freinet-Skolen,Grundskoler,Friskoler og private grundskoler,"(55.6660022996429, 12.5064141973877)"
58,101135,9.1,8.5,101,55.682171211756604,12.4880983225825,2720,Vanløse Privatskole,Grundskoler,Friskoler og private grundskoler,"(55.682171211756604, 12.4880983225825)"
59,101138,5.5,5.8,101,55.7184703801835,12.544362399661301,2100,Lundehusskolen,Grundskoler,Folkeskoler,"(55.7184703801835, 12.544362399661301)"
60,101140,7.1,7.7,101,55.657277,12.51978288,2500,Trekronergade Freinetskole,Grundskoler,Friskoler og private grundskoler,"(55.657277, 12.51978288)"
61,101149,8.1,7.0,101,55.69039923,12.56165569,2200,DIA Privatskole,Grundskoler,Friskoler og private grundskoler,"(55.69039923, 12.56165569)"
62,101151,6.7,6.7,101,55.716494287455504,12.5733199878141,2100,Kildevældsskolen,Grundskoler,Folkeskoler,"(55.716494287455504, 12.5733199878141)"
63,101152,8.7,8.3,101,55.7213912573883,12.5586640107915,2100,Bjørns Internationale Skole,Grundskoler,Friskoler og private grundskoler,"(55.7213912573883, 12.5586640107915)"
64,101153,9.1,8.5,101,55.700287411550995,12.5785481531163,2100,Ingrid Jespersens Gymnasieskole,Grundskoler,Friskoler og private grundskoler,"(55.700287411550995, 12.5785481531163)"
65,101154,7.9,8.2,101,55.70812777276301,12.5670547038203,2100,Niels Steensens Gymnasium,Grundskoler,Friskoler og private grundskoler,"(55.70812777276301, 12.5670547038203)"
66,101155,8.9,8.5,101,55.682456904809705,12.569828766514402,1358,N. Zahles Gymnasieskole,Grundskoler,Friskoler og private grundskoler,"(55.682456904809705, 12.569828766514402)"
67,101157,7.5,7.8,101,55.6977329321241,12.577207980257,2100,Sortedamskolen,Grundskoler,Folkeskoler,"(55.6977329321241, 12.577207980257)"
68,101158,8.5,8.0,101,55.656084053320505,12.5258455390821,2500,Sankt Annæ Gymnasiums Grundskole,Grundskoler,Folkeskoler,"(55.656084053320505, 12.5258455390821)"
69,101162,7.9,7.5,101,55.6591591982375,12.501859125616699,2500,Kildeskolen,Grundskoler,Friskoler og private grundskoler,"(55.6591591982375, 12.501859125616699)"
70,101163,6.0,5.9,101,55.648067833665294,12.6347715795188,2300,Amager's International School,Grundskoler,Friskoler og private grundskoler,"(55.648067833665294, 12.6347715795188)"
71,101169,5.8,5.9,101,55.6961895927436,12.4813493360965,2720,Jinnah International School,Grundskoler,Friskoler og private grundskoler,"(55.6961895927436, 12.4813493360965)"
72,101170,7.1,7.5,101,55.6925081,12.55873945,2200,Det Frie Gymnasiums Grundskole,Grundskoler,Friskoler og private grundskoler,"(55.6925081, 12.55873945)"
73,101172,7.6,6.6,101,55.6875406075802,12.4871951099964,2720,Ahi International School,Grundskoler,Friskoler og private grundskoler,"(55.6875406075802, 12.4871951099964)"
74,101174,6.1,6.1,101,55.662116959338796,12.596477457471002,2300,Amager Fælled Skole,Grundskoler,Folkeskoler,"(55.662116959338796, 12.596477457471002)"
75,101175,6.9,7.6,101,55.699606211108396,12.586741262849099,2100,Langelinieskolen,Grundskoler,Folkeskoler,"(55.699606211108396, 12.586741262849099)"
76,101178,4.9,5.5,101,55.702232763199206,12.5358365040029,2400,Lygten Skole,Grundskoler,Friskoler og private grundskoler,"(55.702232763199206, 12.5358365040029)"
77,101180,7.6,7.2,101,55.6503931524827,12.5224910365209,2450,Al Hikma Skolen,Grundskoler,Friskoler og private grundskoler,"(55.6503931524827, 12.5224910365209)"
78,101181,6.0,5.9,101,55.649476960703495,12.522663050445,2450,Hay Skolen,Grundskoler,Friskoler og private grundskoler,"(55.649476960703495, 12.522663050445)"
79,101184,7.3,6.5,101,55.6985444983091,12.5306831759221,2400,Sjællands Privatskole,Grundskoler,Friskoler og private grundskoler,"(55.6985444983091, 12.5306831759221)"
80,101185,8.1,7.9,101,55.673601795546105,12.556696319725999,1616,Mariendal Friskole,Grundskoler,Friskoler og private grundskoler,"(55.673601795546105, 12.556696319725999)"
81,101188,6.1,6.2,101,55.6742769940967,12.5593781673688,1610,Copenhagen City School,Grundskoler,Friskoler og private grundskoler,"(55.6742769940967, 12.5593781673688)"
82,101189,6.3,6.0,101,55.700219411937596,12.5313160036462,2400,Al-Huda Skolen,Grundskoler,Friskoler og private grundskoler,"(55.700219411937596, 12.5313160036462)"
83,101191,6.7,7.2,101,55.670587132229606,12.5483968790286,1665,Børneuniversitetet på Vesterbro,Grundskoler,Friskoler og private grundskoler,"(55.670587132229606, 12.5483968790286)"
84,101303,6.5,6.7,101,55.64798298,12.51135312,2450,Københavns Idrætsefterskole,Efterskoler,Efterskoler,"(55.64798298, 12.51135312)"
85,101516,7.1,6.8,101,55.7058615957497,12.526234665517899,2400,Al Quds Skole,Grundskoler,Friskoler og private grundskoler,"(55.7058615957497, 12.526234665517899)"
86,101526,6.1,5.9,101,55.7009690047132,12.5360630242783,2400,Al-Hilal Skolen,Grundskoler,Friskoler og private grundskoler,"(55.7009690047132, 12.5360630242783)"
87,101537,8.1,8.2,101,55.702980383559996,12.5818726356956,2100,Heibergskolen,Grundskoler,Folkeskoler,"(55.702980383559996, 12.5818726356956)"
88,101540,7.2,7.4,101,55.7112670082224,12.5198615632974,2400,Utterslev Skole,Grundskoler,Folkeskoler,"(55.7112670082224, 12.5198615632974)"
89,101572,5.9,6.1,101,55.665355077993496,12.5405775825191,1762,Vesterbro Ny Skole,Grundskoler,Folkeskoler,"(55.665355077993496, 12.5405775825191)"
90,101581,7.2,6.3,101,55.7081414456415,12.5244217779389,2400,Nord-Vest Privatskole,Grundskoler,Friskoler og private grundskoler,"(55.7081414456415, 12.5244217779389)"
91,101584,7.7,6.7,101,55.704287539637896,12.5516780889201,2200,Iqra Privatskole,Grundskoler,Friskoler og private grundskoler,"(55.704287539637896, 12.5516780889201)"
92,101585,8.7,8.2,101,55.653272624971294,12.5894188886489,2300,Ørestad Friskole,Grundskoler,Friskoler og private grundskoler,"(55.653272624971294, 12.5894188886489)"
93,101586,7.4,7.5,101,55.6701424957163,12.5575471061709,1656,Gasværksvejens Skole,Grundskoler,Folkeskoler,"(55.6701424957163, 12.5575471061709)"
94,101593,6.6,6.1,101,55.6586888580178,12.503183558078199,2500,Salix Skole,Grundskoler,Friskoler og private grundskoler,"(55.6586888580178, 12.503183558078199)"
95,147002,7.1,7.1,147,55.68051208955811,12.508862159228402,2000,Lindevangskolen,Grundskoler,Folkeskoler,"(55.68051208955811, 12.508862159228402)"
96,147006,7.6,7.7,147,55.6746004791887,12.5034642455995,2000,Søndermarkskolen,Grundskoler,Folkeskoler,"(55.6746004791887, 12.5034642455995)"
97,147007,8.7,8.1,147,55.6911252121039,12.5285771073539,2000,Skolen på Duevej,Grundskoler,Folkeskoler,"(55.6911252121039, 12.5285771073539)"
98,147008,7.0,7.5,147,55.682698963037005,12.5467685327793,1962,Skolen ved Bulowsvej,Grundskoler,Folkeskoler,"(55.682698963037005, 12.5467685327793)"
99,147010,7.1,7.7,147,55.6845664304581,12.518391115382302,2000,Skolen på La Cours Vej,Grundskoler,Folkeskoler,"(55.6845664304581, 12.518391115382302)"
100,147012,7.7,7.6,147,55.68282151345839,12.530571684591902,2000,Skolen på Nyelandsvej,Grundskoler,Folkeskoler,"(55.68282151345839, 12.530571684591902)"
101,147017,8.2,8.1,147,55.671246721619205,12.5369104563961,1812,Frederik Barfods Skole,Grundskoler,Friskoler og private grundskoler,"(55.671246721619205, 12.5369104563961)"
102,147018,8.3,8.1,147,55.675851755748994,12.5471771275627,1902,Kaptajn Johnsens Skole,Grundskoler,Friskoler og private grundskoler,"(55.675851755748994, 12.5471771275627)"
103,147033,9.1,8.4,147,55.681236833428,12.546755236010098,1961,Jakobskolen,Grundskoler,Friskoler og private grundskoler,"(55.681236833428, 12.546755236010098)"
104,147034,8.0,8.2,147,55.6750414547389,12.5018751828903,2000,Johannesskolen,Grundskoler,Friskoler og private grundskoler,"(55.6750414547389, 12.5018751828903)"
105,147044,8.3,8.1,147,55.6758807591376,12.5375665568862,1855,Ny Hollænderskolen,Grundskoler,Folkeskoler,"(55.6758807591376, 12.5375665568862)"
106,147051,6.5,7.3,147,55.6800885506188,12.4980944246467,2000,Tre Falke Skolen,Grundskoler,Folkeskoler,"(55.6800885506188, 12.4980944246467)"
107,147052,8.1,8.1,147,55.677842916841094,12.552764377293,1911,Skolen ved Søerne,Grundskoler,Folkeskoler,"(55.677842916841094, 12.552764377293)"
108,151003,7.3,6.8,151,55.7203335714025,12.357771179391198,2750,Hedegårdsskolen,Grundskoler,Folkeskoler,"(55.7203335714025, 12.357771179391198)"
109,151014,7.9,7.9,151,55.7559919816893,12.3885705257075,2750,Hareskovens Lilleskole,Grundskoler,Friskoler og private grundskoler,"(55.7559919816893, 12.3885705257075)"
110,151018,7.1,7.2,151,55.755656268291,12.3456160200617,2750,Ballerup Ny Skole,Grundskoler,Friskoler og private grundskoler,"(55.755656268291, 12.3456160200617)"
111,151021,8.1,8.1,151,55.7290135950334,12.3996855613566,2740,Thomasskolen,Grundskoler,Friskoler og private grundskoler,"(55.7290135950334, 12.3996855613566)"
112,151024,4.0,3.8,151,55.725501341729405,12.385201363799,2750,Unge2-projektet,Grundskoler,Folkeskoler,"(55.725501341729405, 12.385201363799)"
113,153018,6.0,6.3,153,55.6611531699036,12.4458384331742,2605,Brøndbyøster Skole,Grundskoler,Folkeskoler,"(55.6611531699036, 12.4458384331742)"
114,153019,6.8,6.6,153,55.6454844020148,12.412521578141199,2605,Brøndbyvester Skole,Grundskoler,Folkeskoler,"(55.6454844020148, 12.412521578141199)"
115,153020,5.5,5.8,153,55.62671577165,12.399406281910998,2660,Brøndby Strand Skole,Grundskoler,Folkeskoler,"(55.62671577165, 12.399406281910998)"
116,153300,6.7,6.8,153,55.651100787155,12.416114664517698,2605,Brøndby Idrætsefterskole,Efterskoler,Efterskoler,"(55.651100787155, 12.416114664517698)"
117,157001,7.1,7.4,157,55.746338784715604,12.5254548613061,2820,Bakkegårdsskolen,Grundskoler,Folkeskoler,"(55.746338784715604, 12.5254548613061)"
118,157002,8.2,8.4,157,55.732721547659395,12.538941861696,2900,Dyssegårdsskolen,Grundskoler,Folkeskoler,"(55.732721547659395, 12.538941861696)"
119,157003,8.4,8.5,157,55.74292091139439,12.5472343852408,2820,Gentofte Skole,Grundskoler,Folkeskoler,"(55.74292091139439, 12.5472343852408)"
120,157005,7.4,7.9,157,55.743843398737106,12.5695996286044,2900,Maglegårdsskolen,Grundskoler,Folkeskoler,"(55.743843398737106, 12.5695996286044)"
121,157007,7.9,7.9,157,55.735239486886606,12.5221092224845,2870,Munkegårdsskolen,Grundskoler,Folkeskoler,"(55.735239486886606, 12.5221092224845)"
122,157008,8.1,8.3,157,55.75716845470429,12.5730596968714,2920,Ordrup Skole,Grundskoler,Folkeskoler,"(55.75716845470429, 12.5730596968714)"
123,157009,8.6,8.4,157,55.7663991369269,12.568533380073301,2920,Skovgårdsskolen,Grundskoler,Folkeskoler,"(55.7663991369269, 12.568533380073301)"
124,157010,8.7,8.4,157,55.762157472933204,12.5936915236921,2920,Skovshoved Skole,Grundskoler,Folkeskoler,"(55.762157472933204, 12.5936915236921)"
125,157011,8.6,8.4,157,55.7550860005017,12.5304733848264,2820,Tjørnegårdsskolen,Grundskoler,Folkeskoler,"(55.7550860005017, 12.5304733848264)"
126,157012,9.4,8.8,157,55.73910769629929,12.5669140263643,2900,Tranegårdskolen,Grundskoler,Folkeskoler,"(55.73910769629929, 12.5669140263643)"
127,157013,7.8,8.2,157,55.731595591434605,12.572899003906699,2900,Bernadotteskolen,Grundskoler,Friskoler og private grundskoler,"(55.731595591434605, 12.572899003906699)"
128,157015,8.2,8.3,157,55.7453905190408,12.5222293790523,2820,Busses Skole,Grundskoler,Friskoler og private grundskoler,"(55.7453905190408, 12.5222293790523)"
129,157018,8.3,8.1,157,55.7306171223294,12.556169768246699,2900,Rygaards Skole,Grundskoler,Friskoler og private grundskoler,"(55.7306171223294, 12.556169768246699)"
130,157019,9.1,8.7,157,55.7619851557617,12.572465029091498,2920,Sct. Joseph Søstrenes Skole S/I,Grundskoler,Friskoler og private grundskoler,"(55.7619851557617, 12.572465029091498)"
131,157040,8.6,8.3,157,55.7372635227296,12.543253844680299,2900,Kildegård Privatskole,Grundskoler,Friskoler og private grundskoler,"(55.7372635227296, 12.543253844680299)"
132,157047,8.6,8.2,157,55.7236650042573,12.581017592425198,2900,Hellerup Skole,Grundskoler,Folkeskoler,"(55.7236650042573, 12.581017592425198)"
133,159001,8.2,7.9,159,55.758827208452395,12.4607614067399,2880,Bagsværd Skole,Grundskoler,Folkeskoler,"(55.758827208452395, 12.4607614067399)"
134,159002,7.8,7.5,159,55.741713479950896,12.503414678307399,2860,Buddinge Skole,Grundskoler,Folkeskoler,"(55.741713479950896, 12.503414678307399)"
135,159004,7.4,7.1,159,55.7240986944238,12.478079623503401,2860,Enghavegård Skole,Grundskoler,Folkeskoler,"(55.7240986944238, 12.478079623503401)"
136,159005,7.2,6.9,159,55.745215976875,12.4718871081832,2860,Gladsaxe Skole,Grundskoler,Folkeskoler,"(55.745215976875, 12.4718871081832)"
137,159006,7.2,7.6,159,55.7278027304859,12.496681725799,2860,Grønnemose Skole,Grundskoler,Folkeskoler,"(55.7278027304859, 12.496681725799)"
138,159008,6.2,6.5,159,55.7238337894305,12.4692452675245,2860,Mørkhøj Skole,Grundskoler,Folkeskoler,"(55.7238337894305, 12.4692452675245)"
139,159009,7.4,7.7,159,55.7570467409232,12.47499439421,2800,Stengård Skole,Grundskoler,Folkeskoler,"(55.7570467409232, 12.47499439421)"
140,159010,7.3,7.3,159,55.734704956102895,12.512006236565199,2860,Søborg Skole,Grundskoler,Folkeskoler,"(55.734704956102895, 12.512006236565199)"
141,159012,7.0,7.0,159,55.750637447633295,12.488731354247902,2860,Vadgård Skole,Grundskoler,Folkeskoler,"(55.750637447633295, 12.488731354247902)"
142,159013,6.7,6.5,159,55.75815690894879,12.4320118999691,2880,Skovbrynet skole,Grundskoler,Folkeskoler,"(55.75815690894879, 12.4320118999691)"
143,159015,7.4,7.7,159,55.7559652866213,12.478923456996801,2800,Den Lille Skole,Grundskoler,Friskoler og private grundskoler,"(55.7559652866213, 12.478923456996801)"
144,159016,7.7,7.6,159,55.7472789654757,12.488778974389698,2860,Kvikmarkens Privatskole,Grundskoler,Friskoler og private grundskoler,"(55.7472789654757, 12.488778974389698)"
145,159017,7.6,7.7,159,55.7550438739549,12.482933711823799,2800,Gladsaxe Privatskole,Grundskoler,Friskoler og private grundskoler,"(55.7550438739549, 12.482933711823799)"
146,159018,7.8,8.3,159,55.76653145632171,12.4458813493211,2880,Bagsværd Friskole (Hanna-Skolen),Grundskoler,Friskoler og private grundskoler,"(55.76653145632171, 12.4458813493211)"
147,159034,9.0,8.3,159,55.7645171589758,12.4513673341681,2880,Bagsværd Gymnasiums Grundskole,Grundskoler,Friskoler og private grundskoler,"(55.7645171589758, 12.4513673341681)"
149,163001,7.5,7.2,163,55.7325453737241,12.4250623069057,2730,Lindehøjskolen,Grundskoler,Folkeskoler,"(55.7325453737241, 12.4250623069057)"
150,163004,7.0,7.0,163,55.7231864029724,12.431585685153301,2730,Herlev byskole,Grundskoler,Folkeskoler,"(55.7231864029724, 12.431585685153301)"
151,163006,5.4,6.3,163,55.742352607168506,12.4252745333986,2730,Kildegårdskolen,Grundskoler,Folkeskoler,"(55.742352607168506, 12.4252745333986)"
152,163009,9.1,8.4,163,55.7427475227567,12.4124071641936,2730,Herlev Privatskole,Grundskoler,Friskoler og private grundskoler,"(55.7427475227567, 12.4124071641936)"
153,165001,6.5,6.6,165,55.66943335244739,12.328888885097802,2620,Egelundskolen,Grundskoler,Folkeskoler,"(55.66943335244739, 12.328888885097802)"
154,165011,7.5,7.6,165,55.6881228188889,12.371353008461499,2620,Albertslund Lille Skole,Grundskoler,Friskoler og private grundskoler,"(55.6881228188889, 12.371353008461499)"
155,165019,7.0,7.1,165,55.675417655404,12.364225031528498,2620,Herstedøster Skole,Grundskoler,Folkeskoler,"(55.675417655404, 12.364225031528498)"
156,165020,6.2,6.5,165,55.669517969190906,12.340694335379801,2620,Herstedvester Skole,Grundskoler,Folkeskoler,"(55.669517969190906, 12.340694335379801)"
157,167001,7.1,7.0,167,55.6311810602445,12.4841329252436,2650,Dansborgskolen,Grundskoler,Folkeskoler,"(55.6311810602445, 12.4841329252436)"
158,167002,5.8,6.3,167,55.6433114177557,12.468120746085999,2650,Gungehusskolen,Grundskoler,Folkeskoler,"(55.6433114177557, 12.468120746085999)"
159,167003,7.2,7.2,167,55.66195314,12.47052361,2650,Holmegårdsskolen,Grundskoler,Folkeskoler,"(55.66195314, 12.47052361)"
160,167004,7.1,7.2,167,55.6204569356775,12.490627071194801,2650,Langhøjskolen,Grundskoler,Folkeskoler,"(55.6204569356775, 12.490627071194801)"
161,167005,7.2,7.0,167,55.654091625855706,12.4664491882175,2650,Præstemoseskolen,Grundskoler,Folkeskoler,"(55.654091625855706, 12.4664491882175)"
162,167006,7.1,7.3,167,55.6407471246687,12.4873004457131,2650,Risbjergskolen,Grundskoler,Folkeskoler,"(55.6407471246687, 12.4873004457131)"
163,167008,6.0,6.1,167,55.6264179955171,12.479995820792,2650,Engstrandskolen,Grundskoler,Folkeskoler,"(55.6264179955171, 12.479995820792)"
164,167009,6.1,6.2,167,55.632409620407,12.4555847241502,2650,Avedøre Skole,Grundskoler,Folkeskoler,"(55.632409620407, 12.4555847241502)"
165,167011,7.2,6.7,167,55.6261883451147,12.4640415150324,2650,Frydenhøjskolen,Grundskoler,Folkeskoler,"(55.6261883451147, 12.4640415150324)"
166,167013,8.0,7.2,167,55.650403946326506,12.4800361797688,2650,Esajasskolen,Grundskoler,Friskoler og private grundskoler,"(55.650403946326506, 12.4800361797688)"
167,169001,7.8,7.4,169,55.6613364111666,12.179226813380101,2640,Fløng Skole,Grundskoler,Folkeskoler,"(55.6613364111666, 12.179226813380101)"
169,169007,6.5,6.5,169,55.644704412100104,12.2983253792481,2630,Borgerskolen,Grundskoler,Folkeskoler,"(55.644704412100104, 12.2983253792481)"
170,169008,6.5,6.6,169,55.642800276464605,12.322269148882699,2630,Mølleholmskolen,Grundskoler,Folkeskoler,"(55.642800276464605, 12.322269148882699)"
171,169010,7.5,7.2,169,55.681333640808894,12.2471505171396,2630,Sengeløse Skole,Grundskoler,Folkeskoler,"(55.681333640808894, 12.2471505171396)"
173,169013,5.9,6.0,169,55.6471676528524,12.2163283553483,2640,Charlotteskolen,Grundskoler,Folkeskoler,"(55.6471676528524, 12.2163283553483)"
174,169016,8.0,7.5,169,55.64813057403521,12.2557299242878,2630,Skt. Pauls Skole,Grundskoler,Friskoler og private grundskoler,"(55.64813057403521, 12.2557299242878)"
175,169018,7.9,7.7,169,55.6534894010083,12.302798962300198,2630,Vestegnens Privatskole,Grundskoler,Friskoler og private grundskoler,"(55.6534894010083, 12.302798962300198)"
176,169019,6.7,6.6,169,55.6385292634771,12.2740376906145,2630,Torstorp Skole,Grundskoler,Folkeskoler,"(55.6385292634771, 12.2740376906145)"
177,173002,8.7,8.2,173,55.765885909970294,12.4915195308937,2800,Engelsborgskolen,Grundskoler,Folkeskoler,"(55.765885909970294, 12.4915195308937)"
178,173003,8.7,8.5,173,55.79309166948379,12.479065064925498,2830,Fuglsanggårdsskolen,Grundskoler,Folkeskoler,"(55.79309166948379, 12.479065064925498)"
179,173004,8.6,8.5,173,55.7858079943163,12.474427505523698,2830,Hummeltofteskolen,Grundskoler,Folkeskoler,"(55.7858079943163, 12.474427505523698)"
180,173005,9.1,8.7,173,55.79053633570889,12.4930169823819,2830,Kongevejens Skole,Grundskoler,Folkeskoler,"(55.79053633570889, 12.4930169823819)"
181,173006,7.1,7.4,173,55.774924692853794,12.5094298143762,2800,Lindegårdsskolen,Grundskoler,Folkeskoler,"(55.774924692853794, 12.5094298143762)"
182,173007,7.4,7.4,173,55.7967505319019,12.522272726338198,2800,Lundtofte Skole,Grundskoler,Folkeskoler,"(55.7967505319019, 12.522272726338198)"
183,173009,7.5,7.7,173,55.7782554767494,12.5308603523883,2800,Trongårdsskolen,Grundskoler,Folkeskoler,"(55.7782554767494, 12.5308603523883)"
184,173011,9.4,8.5,173,55.790386949406205,12.459866618744499,2830,Virum Skole,Grundskoler,Folkeskoler,"(55.790386949406205, 12.459866618744499)"
185,173012,6.9,7.0,173,55.768956403705,12.4990849669254,2800,Billums Privatskole,Grundskoler,Friskoler og private grundskoler,"(55.768956403705, 12.4990849669254)"
186,173013,8.9,8.6,173,55.771226492279204,12.502294061565001,2800,Lyngby Private Skole,Grundskoler,Friskoler og private grundskoler,"(55.771226492279204, 12.502294061565001)"
187,173014,9.3,8.8,173,55.7756237091277,12.506750823609,2800,Skt. Knud Lavard Skole,Grundskoler,Friskoler og private grundskoler,"(55.7756237091277, 12.506750823609)"
188,173020,7.2,7.7,173,55.7678241333179,12.4930812903411,2800,Lyngby Friskole,Grundskoler,Friskoler og private grundskoler,"(55.7678241333179, 12.4930812903411)"
189,175001,6.6,6.6,175,55.669363,12.456560000000001,2610,Hendriksholm Skole,Grundskoler,Folkeskoler,"(55.669363, 12.456560000000001)"
190,175002,6.6,6.8,175,55.7051224785332,12.4436648476479,2610,Islev Skole,Grundskoler,Folkeskoler,"(55.7051224785332, 12.4436648476479)"
191,175003,7.3,7.0,175,55.688097224225,12.4476098672796,2610,Nyager Skole,Grundskoler,Folkeskoler,"(55.688097224225, 12.4476098672796)"
192,175004,6.9,7.2,175,55.682372796939,12.4643673649351,2610,Rødovre Skole,Grundskoler,Folkeskoler,"(55.682372796939, 12.4643673649351)"
193,175006,6.5,6.3,175,55.695131860398504,12.449713648529599,2610,Tinderhøj Skole,Grundskoler,Folkeskoler,"(55.695131860398504, 12.449713648529599)"
194,175007,6.7,6.8,175,55.676614142095005,12.4505937282251,2610,Valhøj Skole,Grundskoler,Folkeskoler,"(55.676614142095005, 12.4505937282251)"
196,181002,8.5,8.4,230,55.8160644479777,12.471741824277698,2840,Ny Holte Skole,Grundskoler,Folkeskoler,"(55.8160644479777, 12.471741824277698)"
197,181003,8.3,7.9,230,55.8138622592114,12.534081131219802,2850,Nærum Skole,Grundskoler,Folkeskoler,"(55.8138622592114, 12.534081131219802)"
198,181006,7.4,8.0,230,55.8083291992272,12.510815126726198,2840,Vangeboskolen,Grundskoler,Folkeskoler,"(55.8083291992272, 12.510815126726198)"
199,181007,7.8,8.0,230,55.8521781225607,12.5598752859412,2950,Vedbæk Skole,Grundskoler,Folkeskoler,"(55.8521781225607, 12.5598752859412)"
200,181008,8.2,8.2,230,55.823953578134095,12.4904386600591,2840,Skovlyskolen,Grundskoler,Folkeskoler,"(55.823953578134095, 12.4904386600591)"
201,181009,8.0,8.2,230,55.8377556633487,12.526519703717302,2950,Trørødskolen,Grundskoler,Folkeskoler,"(55.8377556633487, 12.526519703717302)"
202,181016,8.4,8.4,230,55.814886611766504,12.4657697076585,2840,Dronninggårdskolen,Grundskoler,Folkeskoler,"(55.814886611766504, 12.4657697076585)"
203,181017,7.7,8.0,230,55.8061268901861,12.466673359310699,2840,Rudersdal Lilleskole,Grundskoler,Friskoler og private grundskoler,"(55.8061268901861, 12.466673359310699)"
204,183001,7.7,7.3,183,55.6256224110869,12.2964845751409,2635,Ishøj Skole,Grundskoler,Folkeskoler,"(55.6256224110869, 12.2964845751409)"
205,183002,6.5,6.4,183,55.614687044057,12.335621579753699,2635,Vibeholmskolen,Grundskoler,Folkeskoler,"(55.614687044057, 12.335621579753699)"
206,183003,4.8,5.8,183,55.61853366897161,12.3619120594922,2635,Gildbroskolen,Grundskoler,Folkeskoler,"(55.61853366897161, 12.3619120594922)"
207,183004,5.5,5.7,183,55.60721616692061,12.3451449897703,2635,Strandgårdskolen,Grundskoler,Folkeskoler,"(55.60721616692061, 12.3451449897703)"
208,183005,6.2,6.3,183,55.6162859469135,12.366308122660598,2635,Vejlebroskolen,Grundskoler,Folkeskoler,"(55.6162859469135, 12.366308122660598)"
209,183008,7.9,7.5,183,55.6116446620056,12.368852145267198,2635,Ådalens Privatskole,Grundskoler,Friskoler og private grundskoler,"(55.6116446620056, 12.368852145267198)"
210,185002,6.5,6.8,185,55.635105158230495,12.618887349160001,2770,Korsvejens Skole,Grundskoler,Folkeskoler,"(55.635105158230495, 12.618887349160001)"
211,185003,7.4,7.3,185,55.623268347554706,12.619986648834601,2770,Løjtegårdsskolen,Grundskoler,Folkeskoler,"(55.623268347554706, 12.619986648834601)"
212,185004,6.8,6.9,185,55.63701138069101,12.601612776243698,2770,Nordregårdsskolen,Grundskoler,Folkeskoler,"(55.63701138069101, 12.601612776243698)"
213,185005,7.0,7.0,185,55.62138200315621,12.5967173289874,2770,Pilegårdsskolen,Grundskoler,Folkeskoler,"(55.62138200315621, 12.5967173289874)"
214,185006,7.2,6.9,185,55.604499673661394,12.586781424669399,2770,Skelgårdsskolen,Grundskoler,Folkeskoler,"(55.604499673661394, 12.586781424669399)"
215,185010,7.4,6.9,185,55.6328091303368,12.6260601213223,2770,Kastrupgårdsskolen,Grundskoler,Folkeskoler,"(55.6328091303368, 12.6260601213223)"
216,185013,7.9,7.4,185,55.625203943280106,12.599754924423802,2770,Amager Privatskole,Grundskoler,Friskoler og private grundskoler,"(55.625203943280106, 12.599754924423802)"
217,185014,5.8,6.1,185,55.6378386213013,12.638251060401402,2770,Skottegårdsskolen,Grundskoler,Folkeskoler,"(55.6378386213013, 12.638251060401402)"
218,187001,6.8,7.0,187,55.6209247902746,12.3897490693788,2665,Egholmskolen,Grundskoler,Folkeskoler,"(55.6209247902746, 12.3897490693788)"
219,187002,7.1,7.2,187,55.6502420411216,12.359148053235,2625,Pilehaveskolen,Grundskoler,Folkeskoler,"(55.6502420411216, 12.359148053235)"
220,187003,6.8,6.6,187,55.6321440641374,12.369243919806198,2625,Vallensbæk Skole,Grundskoler,Folkeskoler,"(55.6321440641374, 12.369243919806198)"
221,187005,9.3,8.9,187,55.624224386390495,12.396763948675199,2665,Gideonskolen,Grundskoler,Friskoler og private grundskoler,"(55.624224386390495, 12.396763948675199)"
222,189001,9.2,8.6,190,55.765034876975,12.403371520845198,3500,Hareskov Skole,Grundskoler,Folkeskoler,"(55.765034876975, 12.403371520845198)"
223,189002,7.6,7.2,190,55.7860705371838,12.369589898348,3500,Lille Værløse Skole,Grundskoler,Folkeskoler,"(55.7860705371838, 12.369589898348)"
224,189003,8.4,8.0,190,55.7826860056378,12.353494330620899,3500,Søndersøskolen,Grundskoler,Folkeskoler,"(55.7826860056378, 12.353494330620899)"
225,189004,8.7,8.3,190,55.7782241894069,12.381051832370698,3500,Syvstjerneskolen,Grundskoler,Folkeskoler,"(55.7782241894069, 12.381051832370698)"
226,190001,7.5,6.6,219,55.930595450694504,12.2975305000655,3400,Hillerød Privatskole,Grundskoler,Friskoler og private grundskoler,"(55.930595450694504, 12.2975305000655)"
227,190003,7.4,7.4,190,55.8224157891602,12.3892277895059,3520,Lyngholmskolen,Grundskoler,Folkeskoler,"(55.8224157891602, 12.3892277895059)"
228,201001,8.3,8.1,201,55.866247191515704,12.3863302578877,3450,Blovstrød Skole,Grundskoler,Folkeskoler,"(55.866247191515704, 12.3863302578877)"
229,201002,8.2,7.9,201,55.8434201195821,12.284686726348,3540,Lynge Skole,Grundskoler,Folkeskoler,"(55.8434201195821, 12.284686726348)"
230,205001,8.1,8.3,230,55.852706044851395,12.450408735802,3460,Sjælsøskolen,Grundskoler,Folkeskoler,"(55.852706044851395, 12.450408735802)"
231,205002,9.0,8.4,230,55.8291446931456,12.4283869953438,3460,Bistrupskolen,Grundskoler,Folkeskoler,"(55.8291446931456, 12.4283869953438)"
232,205005,8.7,8.4,230,55.8401856693877,12.431764906696902,3460,Toftevangskolen,Grundskoler,Folkeskoler,"(55.8401856693877, 12.431764906696902)"
233,205006,8.4,8.4,230,55.8432601498561,12.4289861275074,3460,Birkerød Privatskole,Grundskoler,Friskoler og private grundskoler,"(55.8432601498561, 12.4289861275074)"
234,207002,8.7,8.3,190,55.8129621582022,12.3566508298854,3520,Solvangskolen,Grundskoler,Folkeskoler,"(55.8129621582022, 12.3566508298854)"
235,207003,6.9,7.5,190,55.814996755558205,12.3944648780939,3520,Stavnsholtskolen,Grundskoler,Folkeskoler,"(55.814996755558205, 12.3944648780939)"
236,207007,8.9,8.4,190,55.813729272850196,12.387116050274502,3520,Marie Kruses Skole,Grundskoler,Friskoler og private grundskoler,"(55.813729272850196, 12.387116050274502)"
237,208005,8.0,8.1,210,55.96496119672751,12.518125780634902,3050,Humlebæk Lille Skole,Grundskoler,Friskoler og private grundskoler,"(55.96496119672751, 12.518125780634902)"
238,208007,8.4,8.2,210,55.985455883297604,12.4058759159236,3480,Endrupskolen,Grundskoler,Folkeskoler,"(55.985455883297604, 12.4058759159236)"
239,208008,8.6,8.0,210,55.96264832163939,12.5041567919962,3050,Langebjergskolen,Grundskoler,Folkeskoler,"(55.96264832163939, 12.5041567919962)"
240,208009,6.6,6.5,210,55.9760021272264,12.3875561128535,3480,Skolen på Slotsvænget,Grundskoler,Friskoler og private grundskoler,"(55.9760021272264, 12.3875561128535)"
241,209005,8.2,7.9,250,55.8406721468905,12.0631885494675,3600,Frederikssund Private Realskole,Grundskoler,Friskoler og private grundskoler,"(55.8406721468905, 12.0631885494675)"
242,213005,4.7,4.8,270,56.111002259615496,12.223924414563902,3250,Havregården Lille-Kost og Dagskole,Grundskoler,Friskoler og private grundskoler,"(56.111002259615496, 12.223924414563902)"
243,213007,7.3,7.1,270,56.087629007101,12.322169940555401,3250,Søborg Privatskole,Grundskoler,Friskoler og private grundskoler,"(56.087629007101, 12.322169940555401)"
244,213008,7.4,7.2,270,56.0966209666508,12.2678118964091,3230,Alme Kristne Friskole,Grundskoler,Friskoler og private grundskoler,"(56.0966209666508, 12.2678118964091)"
245,213010,4.7,5.3,270,56.0492799485129,12.3781923476927,3230,Esrum Kostskole,Grundskoler,Friskoler og private grundskoler,"(56.0492799485129, 12.3781923476927)"
246,215001,7.2,7.4,270,55.9979338837529,12.1840338064059,3200,Bjørnehøjskolen,Grundskoler,Folkeskoler,"(55.9979338837529, 12.1840338064059)"
247,215007,9.0,7.6,270,56.0259794675846,12.2010450174806,3200,Helsinge Realskole,Grundskoler,Friskoler og private grundskoler,"(56.0259794675846, 12.2010450174806)"
248,215008,7.5,7.4,270,56.0080555500597,12.2616196880254,3200,Gribskov Skole,Grundskoler,Friskoler og private grundskoler,"(56.0080555500597, 12.2616196880254)"
249,215300,7.4,7.6,270,56.0587554348326,12.2299759452946,3200,Nordsjællands Efterskole,Efterskoler,Efterskoler,"(56.0587554348326, 12.2299759452946)"
250,215301,6.2,7.0,270,56.072239083197296,12.166947496837,3210,Gribskov Efterskole,Efterskoler,Efterskoler,"(56.072239083197296, 12.166947496837)"
251,217002,7.2,7.6,217,56.072942047192605,12.5491540138872,3140,Hellebækskolen,Grundskoler,Folkeskoler,"(56.072942047192605, 12.5491540138872)"
252,217003,7.4,7.7,217,56.088125,12.459857000000001,3100,Hornbæk Skole,Grundskoler,Folkeskoler,"(56.088125, 12.459857000000001)"
253,217029,5.8,5.8,217,56.0229023525076,12.5889543184249,3000,Al-Irchad Skolen,Grundskoler,Friskoler og private grundskoler,"(56.0229023525076, 12.5889543184249)"
254,217300,5.1,6.4,350,55.653930928201106,11.9391752234302,4000,Efterskolen Lindenborg,Efterskoler,Efterskoler,"(55.653930928201106, 11.9391752234302)"
255,219002,7.4,7.8,219,55.9287971630404,12.314458463140301,3400,Frederiksborg Byskole,Grundskoler,Folkeskoler,"(55.9287971630404, 12.314458463140301)"
256,219003,7.3,7.5,219,55.9393871744586,12.2894423967358,3400,Hillerødsholmskolen,Grundskoler,Folkeskoler,"(55.9393871744586, 12.2894423967358)"
257,219010,8.0,8.1,219,55.9262452074284,12.307964445201199,3400,Marie Mørks Skole,Grundskoler,Friskoler og private grundskoler,"(55.9262452074284, 12.307964445201199)"
258,219011,7.3,7.7,219,55.9465858782864,12.3093386253317,3400,Johannesskolen,Grundskoler,Friskoler og private grundskoler,"(55.9465858782864, 12.3093386253317)"
259,219016,6.8,7.1,219,55.9305098045374,12.2534544024332,3400,Den Alternative Skole,Grundskoler,Friskoler og private grundskoler,"(55.9305098045374, 12.2534544024332)"
260,219022,8.1,8.1,219,55.95226124026179,12.3087050757704,3400,Kon Tiki - Børnenes Skole,Grundskoler,Friskoler og private grundskoler,"(55.95226124026179, 12.3087050757704)"
261,219030,7.9,7.6,219,55.9511461132265,12.265735480381801,3400,Sophienborgskolen,Grundskoler,Folkeskoler,"(55.9511461132265, 12.265735480381801)"
262,223001,9.0,8.6,223,55.88011441893661,12.5048000467627,2970,Hørsholm Skole,Grundskoler,Folkeskoler,"(55.88011441893661, 12.5048000467627)"
263,223002,8.2,8.3,223,55.882912316404294,12.5333753792645,2960,Rungsted Skole,Grundskoler,Folkeskoler,"(55.882912316404294, 12.5333753792645)"
264,223003,8.5,8.2,223,55.8916189256503,12.4931096513491,2970,Usserød Skole,Grundskoler,Folkeskoler,"(55.8916189256503, 12.4931096513491)"
265,223004,8.5,8.3,223,55.8948685986119,12.520092219355199,2960,Vallerødskolen,Grundskoler,Folkeskoler,"(55.8948685986119, 12.520092219355199)"
267,223007,8.3,8.3,223,55.8858095578938,12.511089092297098,2960,Hørsholm Lille Skole,Grundskoler,Friskoler og private grundskoler,"(55.8858095578938, 12.511089092297098)"
268,223300,6.5,7.3,223,55.88086639871779,12.4488326348157,2970,Sportsefterskolen Sjælsølund,Efterskoler,Efterskoler,"(55.88086639871779, 12.4488326348157)"
270,231005,7.3,7.3,219,55.884382632995994,12.1305758131814,3600,Sigerslevøster Privatskole,Grundskoler,Friskoler og private grundskoler,"(55.884382632995994, 12.1305758131814)"
271,235006,7.9,7.7,240,55.77560011002979,12.197337100247701,3660,Stenløse Privatskole,Grundskoler,Friskoler og private grundskoler,"(55.77560011002979, 12.197337100247701)"
272,250004,6.5,6.7,250,55.84144944167979,11.987880961210001,3630,Jægerspris Skole,Grundskoler,Folkeskoler,"(55.84144944167979, 11.987880961210001)"
273,251001,6.6,7.1,350,55.683955397568,11.847479208852,4070,Bramsnæsvigskolen,Grundskoler,Folkeskoler,"(55.683955397568, 11.847479208852)"
274,251002,6.5,6.6,350,55.7084220256779,11.898719539068802,4070,Kirke Hyllinge Skole,Grundskoler,Folkeskoler,"(55.7084220256779, 11.898719539068802)"
275,253001,6.5,6.8,253,55.590875571545105,12.288673533994801,2670,Hedelyskolen,Grundskoler,Folkeskoler,"(55.590875571545105, 12.288673533994801)"
276,253002,6.7,6.9,253,55.5582370606208,12.2211325816872,2690,Karlslunde Skole,Grundskoler,Folkeskoler,"(55.5582370606208, 12.2211325816872)"
277,253003,7.1,6.9,253,55.5929536937984,12.321788575063,2670,Krogårdskolen,Grundskoler,Folkeskoler,"(55.5929536937984, 12.321788575063)"
278,253004,8.0,7.7,253,55.5788854898654,12.2764544592765,2670,Mosedeskolen,Grundskoler,Folkeskoler,"(55.5788854898654, 12.2764544592765)"
279,253005,7.2,7.2,253,55.562987012803404,12.2520871029442,2690,Strandskolen,Grundskoler,Folkeskoler,"(55.562987012803404, 12.2520871029442)"
280,253006,6.9,6.8,253,55.5954311132392,12.170019621049398,4030,Tune Skole,Grundskoler,Folkeskoler,"(55.5954311132392, 12.170019621049398)"
282,253008,5.3,5.6,253,55.5947485567084,12.333067738483601,2670,Arenaskolen,Grundskoler,Folkeskoler,"(55.5947485567084, 12.333067738483601)"
284,253011,6.2,6.5,253,55.58908229366779,12.2764072579425,2670,Damagerskolen,Grundskoler,Folkeskoler,"(55.58908229366779, 12.2764072579425)"
286,253015,8.0,7.8,253,55.581291839706104,12.2983072376034,2670,Holmeagerskolen,Grundskoler,Folkeskoler,"(55.581291839706104, 12.2983072376034)"
287,255001,7.7,7.5,265,55.696343386005296,12.135492800269,4000,Lindebjergskolen,Grundskoler,Folkeskoler,"(55.696343386005296, 12.135492800269)"
288,255003,6.5,6.9,265,55.7352254420533,12.1301049330131,4000,Margretheskolen,Grundskoler,Folkeskoler,"(55.7352254420533, 12.1301049330131)"
289,255005,6.5,7.1,265,55.7148651737956,12.1406378506038,4000,Roskilde Lille Skole,Grundskoler,Friskoler og private grundskoler,"(55.7148651737956, 12.1406378506038)"
290,257001,7.6,7.4,350,55.592431491502,11.856839261915699,4330,Hvalsø Skole,Grundskoler,Folkeskoler,"(55.592431491502, 11.856839261915699)"
291,257002,7.5,7.2,350,55.636872911971295,11.871472961501,4060,Kirke Saaby Skole,Grundskoler,Folkeskoler,"(55.636872911971295, 11.871472961501)"
292,257300,5.8,7.1,350,55.55212092485851,11.913839412607999,4330,Midtsjællands Efterskole,Efterskoler,Efterskoler,"(55.55212092485851, 11.913839412607999)"
293,259003,6.7,6.5,259,55.454089112568795,12.1644038868996,4600,Ellemarkskolen,Grundskoler,Folkeskoler,"(55.454089112568795, 12.1644038868996)"
294,259004,6.7,6.6,259,55.417457902192204,12.142482371001101,4681,Herfølge Skole,Grundskoler,Folkeskoler,"(55.417457902192204, 12.142482371001101)"
295,259005,6.7,6.7,259,55.5022072713651,12.1147631942322,4623,Højelse Skole,Grundskoler,Folkeskoler,"(55.5022072713651, 12.1147631942322)"
296,259006,6.6,6.5,259,55.4944172905885,12.176183864216402,4600,Kirstinedalsskolen,Grundskoler,Folkeskoler,"(55.4944172905885, 12.176183864216402)"
297,259008,6.8,7.1,259,55.446460503768606,12.1755736544339,4600,Søndre Skole,Grundskoler,Folkeskoler,"(55.446460503768606, 12.1755736544339)"
298,259011,6.2,6.6,259,55.43702315224421,12.153777246986499,4600,Hastrupskolen,Grundskoler,Folkeskoler,"(55.43702315224421, 12.153777246986499)"
299,259013,6.9,7.2,259,55.4279778822232,12.1817108981299,4600,Køge Lille Skole,Grundskoler,Friskoler og private grundskoler,"(55.4279778822232, 12.1817108981299)"
300,259015,6.7,6.6,259,55.403244459064595,12.137494003394,4681,Holmebækskolen,Grundskoler,Folkeskoler,"(55.403244459064595, 12.137494003394)"
301,259019,7.3,7.3,259,55.460455006627505,12.1829894833089,4600,Sct. Nicolai Skole,Grundskoler,Folkeskoler,"(55.460455006627505, 12.1829894833089)"
302,259020,5.4,5.9,259,55.40960971111,12.1455056137375,4681,Herfølge Privatskole,Grundskoler,Friskoler og private grundskoler,"(55.40960971111, 12.1455056137375)"
303,259021,7.8,8.0,259,55.4227983578779,12.182897180778198,4600,Billesborgskolen,Grundskoler,Friskoler og private grundskoler,"(55.4227983578779, 12.182897180778198)"
304,259022,8.2,7.8,259,55.48018386790999,12.1766821740718,4600,Køge Private Realskole,Grundskoler,Friskoler og private grundskoler,"(55.48018386790999, 12.1766821740718)"
305,259025,7.3,6.8,259,55.4733813625629,12.1665716714055,4600,Asgård Skole,Grundskoler,Folkeskoler,"(55.4733813625629, 12.1665716714055)"
306,261001,8.5,8.3,350,55.60199066024529,11.964887639763901,4320,Allerslev Skole,Grundskoler,Folkeskoler,"(55.60199066024529, 11.964887639763901)"
307,261002,6.4,6.5,350,55.561996266852205,11.9627856571647,4320,Osted Skole,Grundskoler,Folkeskoler,"(55.561996266852205, 11.9627856571647)"
308,261004,6.4,7.2,350,55.6688310273594,11.9623111312214,4000,Trællerupskolen,Grundskoler,Folkeskoler,"(55.6688310273594, 11.9623111312214)"
310,263001,7.3,7.1,265,55.569202465641006,12.091540697949801,4621,Gadstrup Skole,Grundskoler,Folkeskoler,"(55.569202465641006, 12.091540697949801)"
311,263003,7.1,7.2,265,55.561566981739794,12.025155262678,4130,Viby Friskole,Grundskoler,Friskoler og private grundskoler,"(55.561566981739794, 12.025155262678)"
312,265001,8.4,8.2,265,55.640121561156796,12.0740920661236,4000,Absalons Skole,Grundskoler,Folkeskoler,"(55.640121561156796, 12.0740920661236)"
313,265005,7.5,7.6,265,55.640933234109994,12.1016207213214,4000,Hedegårdenes Skole,Grundskoler,Folkeskoler,"(55.640933234109994, 12.1016207213214)"
314,265006,7.8,8.0,265,55.6594845896735,12.1037034385823,4000,Himmelev Skole,Grundskoler,Folkeskoler,"(55.6594845896735, 12.1037034385823)"
315,265007,8.3,8.0,265,55.64985971643121,12.0957308916958,4000,Klostermarksskolen,Grundskoler,Folkeskoler,"(55.64985971643121, 12.0957308916958)"
316,265008,7.1,7.5,265,55.6325366731635,12.0104845507574,4000,Lynghøjskolen,Grundskoler,Folkeskoler,"(55.6325366731635, 12.0104845507574)"
317,265010,7.3,7.6,265,55.6391148140523,12.062861597407698,4000,Sct. Jørgens Skole,Grundskoler,Folkeskoler,"(55.6391148140523, 12.062861597407698)"
318,265013,7.8,7.4,265,55.629513422244905,12.0964585107075,4000,Østervangsskolen,Grundskoler,Folkeskoler,"(55.629513422244905, 12.0964585107075)"
319,265015,6.9,6.7,265,55.6323180060445,12.0569871934356,4000,Tjørnegårdskolen,Grundskoler,Folkeskoler,"(55.6323180060445, 12.0569871934356)"
320,265017,7.9,7.9,265,55.642932978870704,12.0847040376776,4000,Roskilde Private Realskole,Grundskoler,Friskoler og private grundskoler,"(55.642932978870704, 12.0847040376776)"
321,265018,6.7,6.9,265,55.6459092900109,12.0970171480405,4000,Roskilde Private Skole,Grundskoler,Friskoler og private grundskoler,"(55.6459092900109, 12.0970171480405)"
322,265019,8.4,8.2,265,55.64435837875521,12.084221473750901,4000,Skt. Josefs Skole,Grundskoler,Friskoler og private grundskoler,"(55.64435837875521, 12.084221473750901)"
323,265032,8.3,8.3,265,55.6516828087228,12.1232873747319,4000,Trekronerskolen,Grundskoler,Folkeskoler,"(55.6516828087228, 12.1232873747319)"
324,267001,6.2,6.7,259,55.4507188534702,12.0343328617438,4632,Skovboskolen,Grundskoler,Folkeskoler,"(55.4507188534702, 12.0343328617438)"
325,267002,6.9,7.0,259,55.4985280438289,11.974807573638001,4140,Borup Skole,Grundskoler,Folkeskoler,"(55.4985280438289, 11.974807573638001)"
326,267003,7.6,7.4,259,55.4926759003305,12.0663506427093,4623,Ejby Skole,Grundskoler,Folkeskoler,"(55.4926759003305, 12.0663506427093)"
327,267005,7.0,7.0,259,55.460689092383795,12.056645616287598,4632,Vemmedrupskolen,Grundskoler,Folkeskoler,"(55.460689092383795, 12.056645616287598)"
328,267008,8.8,8.3,259,55.4899239125286,11.971681468588901,4140,Borup Privatskole,Grundskoler,Friskoler og private grundskoler,"(55.4899239125286, 11.971681468588901)"
329,267300,5.7,6.5,259,55.4470743807749,11.956741402569099,4100,Skovbo Efterskole,Efterskoler,Efterskoler,"(55.4470743807749, 11.956741402569099)"
330,269001,7.1,7.0,269,55.5474108362534,12.129555089205198,4622,Havdrup Skole,Grundskoler,Folkeskoler,"(55.5474108362534, 12.129555089205198)"
331,269005,7.8,7.3,269,55.528193181575006,12.2106574568232,2680,Uglegårdsskolen,Grundskoler,Folkeskoler,"(55.528193181575006, 12.2106574568232)"
332,269007,7.8,7.4,269,55.540553716992704,12.217852838605198,2680,Munkekærskolen,Grundskoler,Folkeskoler,"(55.540553716992704, 12.217852838605198)"
333,269009,7.9,7.6,269,55.5365196699162,12.1885558225471,2680,Køge Bugt Privatskole,Grundskoler,Friskoler og private grundskoler,"(55.5365196699162, 12.1885558225471)"
334,270002,6.7,6.9,270,56.0649028737457,12.1347947734203,3210,Sankt Helene Skole,Grundskoler,Folkeskoler,"(56.0649028737457, 12.1347947734203)"
335,271001,5.6,5.9,336,55.345358072885894,12.2384607008639,4652,Hotherskolen,Grundskoler,Folkeskoler,"(55.345358072885894, 12.2384607008639)"
336,271002,6.9,7.1,336,55.400752307354004,12.2625994728878,4671,Strøbyskolen,Grundskoler,Folkeskoler,"(55.400752307354004, 12.2625994728878)"
337,280038,6.7,6.9,320,55.272149664601095,12.243205264848699,4640,Spjellerup Friskole,Grundskoler,Friskoler og private grundskoler,"(55.272149664601095, 12.243205264848699)"
338,280039,6.2,5.9,217,56.0230526140208,12.561824665572601,3000,Helsingør Privatskole,Grundskoler,Friskoler og private grundskoler,"(56.0230526140208, 12.561824665572601)"
339,280042,4.7,5.3,376,54.79038758650471,11.944493706278601,4800,Falster Efterskole,Efterskoler,Efterskoler,"(54.79038758650471, 11.944493706278601)"
340,280055,6.3,6.3,306,55.88754437915879,11.6234432925248,4572,Nr. Asmindrup Friskole,Grundskoler,Friskoler og private grundskoler,"(55.88754437915879, 11.6234432925248)"
341,280056,6.7,6.3,766,55.824314816377495,10.088490651687,7130,Phønix Efterskole,Efterskoler,Efterskoler,"(55.824314816377495, 10.088490651687)"
342,280106,5.1,5.9,165,55.659586672471,12.341494606912901,2620,Herstedlund Skole,Grundskoler,Folkeskoler,"(55.659586672471, 12.341494606912901)"
343,280113,7.0,6.9,479,55.0737552737478,10.6383485987165,5700,Nymarkskolen,Grundskoler,Folkeskoler,"(55.0737552737478, 10.6383485987165)"
344,280117,7.3,6.7,430,55.2295431578787,10.252286121863301,5672,Brobyskolerne,Grundskoler,Folkeskoler,"(55.2295431578787, 10.252286121863301)"
345,280119,7.3,7.2,210,55.9655019685026,12.4197359584993,3480,Fredensborg Skole,Grundskoler,Folkeskoler,"(55.9655019685026, 12.4197359584993)"
346,280120,8.1,8.1,210,55.9568276615038,12.5328880743607,3050,Humlebæk Skole,Grundskoler,Folkeskoler,"(55.9568276615038, 12.5328880743607)"
347,280121,7.1,7.0,210,55.9333170210966,12.501172604370199,2990,Nivå Skole,Grundskoler,Folkeskoler,"(55.9333170210966, 12.501172604370199)"
348,280122,7.4,7.0,210,55.9096863554127,12.489140462163599,2980,Kokkedal Skole,Grundskoler,Folkeskoler,"(55.9096863554127, 12.489140462163599)"
349,280135,7.0,6.8,479,55.074133645528796,10.448997895481499,5762,Vestermarkskolen,Grundskoler,Folkeskoler,"(55.074133645528796, 10.448997895481499)"
350,280136,7.7,7.2,479,55.132424622880706,10.5022666150997,5771,Issø-skolen,Grundskoler,Folkeskoler,"(55.132424622880706, 10.5022666150997)"
351,280137,6.9,7.1,479,55.152583961181094,10.708214257051901,5884,Stokkebækskolen,Grundskoler,Folkeskoler,"(55.152583961181094, 10.708214257051901)"
352,280138,7.0,7.2,479,55.095335622090204,10.6876733611968,5881,Skårup Skole,Grundskoler,Folkeskoler,"(55.095335622090204, 10.6876733611968)"
353,280139,7.2,7.3,479,55.040167411014004,10.6152332405109,5700,Tåsingeskolen,Grundskoler,Folkeskoler,"(55.040167411014004, 10.6152332405109)"
354,280161,6.7,6.4,820,56.9587267508212,9.354247577682,9670,Toppedalskolen,Grundskoler,Folkeskoler,"(56.9587267508212, 9.354247577682)"
355,280163,7.3,7.7,219,55.940604907469904,12.2661680154197,3400,Hillerød Vest Skolen,Grundskoler,Folkeskoler,"(55.940604907469904, 12.2661680154197)"
356,280164,7.6,7.7,219,55.94103818057901,12.334818246366801,3400,Grønnevang skole,Grundskoler,Folkeskoler,"(55.94103818057901, 12.334818246366801)"
357,280165,7.8,7.8,219,55.8886257344215,12.287154944449698,3400,Hanebjerg Skole,Grundskoler,Folkeskoler,"(55.8886257344215, 12.287154944449698)"
358,280166,7.7,7.4,219,55.910731865883,12.1555885046992,3320,Kornmarkskolen,Grundskoler,Folkeskoler,"(55.910731865883, 12.1555885046992)"
359,280186,7.7,7.6,155,55.595554994484104,12.6372393011621,2791,St. Magleby Skole,Grundskoler,Folkeskoler,"(55.595554994484104, 12.6372393011621)"
360,280187,7.6,8.1,155,55.59360699999999,12.669817,2791,Dragør Skole,Grundskoler,Folkeskoler,"(55.59360699999999, 12.669817)"
361,280189,6.9,6.5,575,55.482036801275704,9.01940415316144,6650,Brørupskolen,Grundskoler,Folkeskoler,"(55.482036801275704, 9.01940415316144)"
363,280197,6.5,6.8,260,55.9863016853186,12.014365345791699,3300,Frederiksværk Skole,Grundskoler,Folkeskoler,"(55.9863016853186, 12.014365345791699)"
364,280198,6.7,6.8,260,55.956682499800394,11.8553042626664,3390,Hundested Skole,Grundskoler,Folkeskoler,"(55.956682499800394, 11.8553042626664)"
365,280206,5.7,5.6,461,55.3595675999005,10.37923659094,5260,Fyns Privatskole,Grundskoler,Friskoler og private grundskoler,"(55.3595675999005, 10.37923659094)"
366,280207,4.8,5.1,860,57.46046219264421,9.869841401433519,9800,Friskolen Skallerup,Grundskoler,Friskoler og private grundskoler,"(57.46046219264421, 9.869841401433519)"
367,280208,6.3,6.3,580,54.893633935486406,9.44056162509993,6340,Grænseegnens Friskole,Grundskoler,Friskoler og private grundskoler,"(54.893633935486406, 9.44056162509993)"
368,280210,7.1,7.1,376,54.74283505714929,11.959542377034099,4872,Idestrup Privatskole,Grundskoler,Friskoler og private grundskoler,"(54.74283505714929, 11.959542377034099)"
369,280218,7.5,7.3,621,55.3535831854593,9.357460458510161,6070,Stepping Friskole,Grundskoler,Friskoler og private grundskoler,"(55.3535831854593, 9.357460458510161)"
370,280221,4.8,5.4,860,57.5070824103152,10.2795887678634,9870,Vendsyssel Friskole,Grundskoler,Friskoler og private grundskoler,"(57.5070824103152, 10.2795887678634)"
371,280222,7.0,7.0,250,55.8298902391764,12.085982613844301,3600,Ådalens Skole,Grundskoler,Folkeskoler,"(55.8298902391764, 12.085982613844301)"
372,280226,5.6,5.8,450,55.39363331320249,10.688449002816599,5540,Langtved Friskole,Grundskoler,Friskoler og private grundskoler,"(55.39363331320249, 10.688449002816599)"
373,280239,6.3,6.4,510,55.2474362680449,9.31194134912746,6500,Lagoniskolen,Grundskoler,Folkeskoler,"(55.2474362680449, 9.31194134912746)"
374,280240,7.3,6.9,510,55.26176115767329,9.50837183797414,6100,Fællesskolen Favrdal-Fjelstrup,Grundskoler,Folkeskoler,"(55.26176115767329, 9.50837183797414)"
375,280242,7.0,6.9,510,55.2454520533236,9.48847157313466,6100,Sønder Otting Skole,Grundskoler,Folkeskoler,"(55.2454520533236, 9.48847157313466)"
376,280270,7.5,7.5,270,56.11641525487221,12.307447740476599,3250,Gilbjergskolen,Grundskoler,Folkeskoler,"(56.11641525487221, 12.307447740476599)"
377,280271,6.3,6.6,270,56.067108,12.281852,3230,Gribskolen,Grundskoler,Folkeskoler,"(56.067108, 12.281852)"
378,280272,6.8,6.9,270,56.02584480077189,12.1912107394205,3200,Nordstjerneskolen,Grundskoler,Folkeskoler,"(56.02584480077189, 12.1912107394205)"
379,280307,6.3,6.6,751,56.18921016874229,10.2222200663227,8240,Risskov Efterskole & Sansestormerne,Efterskoler,Efterskoler,"(56.18921016874229, 10.2222200663227)"
380,280308,6.7,6.7,740,56.1597458359536,9.556186143778039,8600,Silkeborg Efterskole,Efterskoler,Efterskoler,"(56.1597458359536, 9.556186143778039)"
381,280313,7.4,7.3,751,56.03529895751821,10.195100344776199,8340,Efterskolen for Scenekunst,Efterskoler,Efterskoler,"(56.03529895751821, 10.195100344776199)"
382,280316,7.9,7.2,530,55.7257001245478,9.104640333234169,7190,BillundSkolen,Grundskoler,Folkeskoler,"(55.7257001245478, 9.104640333234169)"
383,280319,6.6,6.6,580,55.0345675342468,9.406011629529711,6200,Kongehøjskolen,Grundskoler,Folkeskoler,"(55.0345675342468, 9.406011629529711)"
384,280320,6.8,6.6,580,55.0723682349666,9.332392461402438,6230,Hærvejsskolen,Grundskoler,Folkeskoler,"(55.0723682349666, 9.332392461402438)"
385,280321,6.4,6.3,580,54.843507702268894,9.37028246613441,6330,Lyreskovskolen,Grundskoler,Folkeskoler,"(54.843507702268894, 9.37028246613441)"
386,280327,8.5,8.4,230,55.840816530020895,12.414754295270601,3460,Birkerød Skole,Grundskoler,Folkeskoler,"(55.840816530020895, 12.414754295270601)"
388,280332,7.6,7.2,630,55.70345322008679,9.30934073038325,7182,Firehøjeskolen,Grundskoler,Folkeskoler,"(55.70345322008679, 9.30934073038325)"
389,280333,7.0,7.3,630,55.652385156034,9.66482996082203,7080,Fælleshåbsskolen,Grundskoler,Folkeskoler,"(55.652385156034, 9.66482996082203)"
390,280335,7.2,7.0,630,55.7038342499525,9.37740191123808,7182,Bredsten - Gadbjerg Skole,Grundskoler,Folkeskoler,"(55.7038342499525, 9.37740191123808)"
391,280342,6.7,6.7,329,55.429105314950505,11.782244172467001,4100,Campusskolen,Grundskoler,Folkeskoler,"(55.429105314950505, 11.782244172467001)"
392,280351,6.7,7.1,390,55.117232114161,12.049251232796,4720,Præstø skole,Grundskoler,Folkeskoler,"(55.117232114161, 12.049251232796)"
393,280379,6.7,6.9,350,55.714615946051104,11.9379582149968,4070,Sofiehøj Friskole,Grundskoler,Friskoler og private grundskoler,"(55.714615946051104, 11.9379582149968)"
394,280380,7.9,7.8,329,55.5239426607302,11.769332746418801,4370,Allindelille Friskole,Grundskoler,Friskoler og private grundskoler,"(55.5239426607302, 11.769332746418801)"
395,280381,7.7,7.7,250,55.8553134753429,11.9821285206267,3630,Slotsparkens Friskole,Grundskoler,Friskoler og private grundskoler,"(55.8553134753429, 11.9821285206267)"
396,280382,6.5,6.4,550,55.062454435283,9.101159996745881,6240,Bedsted Friskole,Grundskoler,Friskoler og private grundskoler,"(55.062454435283, 9.101159996745881)"
397,280383,7.2,7.0,846,56.5867770771999,9.76214338230001,9500,Mariagerfjord Idrætsskole,Grundskoler,Friskoler og private grundskoler,"(56.5867770771999, 9.76214338230001)"
398,280384,7.5,7.7,791,56.411417510544005,9.34679331044587,8800,Hald Ege Fri- og Efterskole,Grundskoler,Friskoler og private grundskoler,"(56.411417510544005, 9.34679331044587)"
399,280386,7.6,7.3,540,55.02870931781921,9.830499538776788,6430,Svenstrup Friskole,Grundskoler,Friskoler og private grundskoler,"(55.02870931781921, 9.830499538776788)"
400,280388,6.2,6.5,530,55.814116517139595,9.0309593612452,7200,Filskov Friskole,Grundskoler,Friskoler og private grundskoler,"(55.814116517139595, 9.0309593612452)"
401,280392,7.8,7.7,573,55.7832226871432,8.65523002782968,6870,Ølgod Kristne Friskole,Grundskoler,Friskoler og private grundskoler,"(55.7832226871432, 8.65523002782968)"
402,280405,6.8,6.9,730,56.449554502357294,10.088911371315,8960,Romalt Friskole,Grundskoler,Friskoler og private grundskoler,"(56.449554502357294, 10.088911371315)"
403,280434,6.5,6.5,540,55.0571236805171,9.74397496562463,6430,Nordals skolen,Grundskoler,Folkeskoler,"(55.0571236805171, 9.74397496562463)"
405,280447,8.1,8.3,217,56.07116919684071,12.5537807908707,3150,Skorpeskolen,Grundskoler,Friskoler og private grundskoler,"(56.07116919684071, 12.5537807908707)"
406,280453,4.1,5.0,671,56.6193957856538,8.57181450409958,7790,Handbjerghus Efterskole,Efterskoler,Efterskoler,"(56.6193957856538, 8.57181450409958)"
407,280456,7.4,7.1,440,55.45087671538939,10.6563313502577,5300,Kerteminde Byskole,Grundskoler,Folkeskoler,"(55.45087671538939, 10.6563313502577)"
408,280457,7.0,6.7,440,55.4530774391224,10.540886783769,5330,Munkebo Skole,Grundskoler,Folkeskoler,"(55.4530774391224, 10.540886783769)"
409,280463,6.8,6.8,630,55.755112978442405,9.42341601184519,7300,Jelling Friskole,Grundskoler,Friskoler og private grundskoler,"(55.755112978442405, 9.42341601184519)"
410,280464,6.8,7.2,336,55.3286965118715,12.2613029920285,4652,Hellested Friskole og Børnehus,Grundskoler,Friskoler og private grundskoler,"(55.3286965118715, 12.2613029920285)"
411,280468,4.7,5.1,151,55.7303650028164,12.344663612421698,2750,Ballerup Privatskole,Grundskoler,Friskoler og private grundskoler,"(55.7303650028164, 12.344663612421698)"
413,280538,7.6,7.3,370,55.1475816976373,11.8702309801932,4700,Hammer Frie Privatskole,Grundskoler,Friskoler og private grundskoler,"(55.1475816976373, 11.8702309801932)"
414,280542,6.8,7.2,153,55.6545744650174,12.3984908346414,2605,Park Allé Privatskole,Grundskoler,Friskoler og private grundskoler,"(55.6545744650174, 12.3984908346414)"
415,280548,5.0,5.3,370,55.287381271548995,11.5587532801791,4250,Mina Hindholm Efterskole,Efterskoler,Efterskoler,"(55.287381271548995, 11.5587532801791)"
416,280551,7.1,7.1,101,55.7214424732194,12.5590671166609,2100,Københavns Skole & Idrætsakademi,Grundskoler,Friskoler og private grundskoler,"(55.7214424732194, 12.5590671166609)"
417,280612,5.8,6.2,540,54.9866321405921,9.97720396034187,6440,Efterskolen Epos,Efterskoler,Efterskoler,"(54.9866321405921, 9.97720396034187)"
418,280629,7.0,7.2,250,55.8491453015479,12.162698623372801,3550,Slangerup Skole,Grundskoler,Folkeskoler,"(55.8491453015479, 12.162698623372801)"
419,280631,6.5,6.7,250,55.747314287707795,11.965818572351198,4050,Fjordlandsskolen,Grundskoler,Folkeskoler,"(55.747314287707795, 11.965818572351198)"
421,280638,8.1,8.0,210,55.940231608722705,12.4941784664208,2990,Per Gyrum Skolen,Grundskoler,Friskoler og private grundskoler,"(55.940231608722705, 12.4941784664208)"
422,280810,7.1,6.7,430,55.1045545512824,10.221536216749099,5600,Øhavsskolen,Grundskoler,Folkeskoler,"(55.1045545512824, 10.221536216749099)"
429,301004,6.4,6.5,326,55.721980339067294,11.368199352845302,4591,Firhøjskolen,Grundskoler,Folkeskoler,"(55.721980339067294, 11.368199352845302)"
430,301007,4.5,5.4,326,55.6512230656595,11.2864619208935,4470,Svebølle Skole,Grundskoler,Folkeskoler,"(55.6512230656595, 11.2864619208935)"
431,301008,6.8,6.8,326,55.7001854451791,11.3400485904001,4591,Højbo Friskole,Grundskoler,Friskoler og private grundskoler,"(55.7001854451791, 11.3400485904001)"
432,301010,4.5,5.2,326,55.6765392137367,11.333402052945099,4450,Bregninge-Bjergsted Friskole,Grundskoler,Friskoler og private grundskoler,"(55.6765392137367, 11.333402052945099)"
433,303001,6.2,6.5,340,55.521003007661,11.4955354682533,4293,Holbergskolen,Grundskoler,Folkeskoler,"(55.521003007661, 11.4955354682533)"
434,303003,7.1,6.8,340,55.53812535108211,11.373298054861698,4291,Ruds Vedby Skole,Grundskoler,Folkeskoler,"(55.53812535108211, 11.373298054861698)"
435,305011,9.2,8.4,306,55.788147666224795,11.4630150186107,4540,Fårevejle Fri-  og Efterskole,Grundskoler,Friskoler og private grundskoler,"(55.788147666224795, 11.4630150186107)"
436,305015,7.0,7.4,306,55.750519182198495,11.436512067274199,4534,Vallekilde-Hørve Friskole,Grundskoler,Friskoler og private grundskoler,"(55.750519182198495, 11.436512067274199)"
437,305019,4.2,4.9,306,55.75286350156179,11.3913831819914,4534,Friskolen i Starreklinte,Grundskoler,Friskoler og private grundskoler,"(55.75286350156179, 11.3913831819914)"
438,305300,7.7,7.5,306,55.788147666224795,11.4630150186107,4540,Fårevejle Fri- og Efterskole,Efterskoler,Efterskoler,"(55.788147666224795, 11.4630150186107)"
439,307004,7.3,7.0,370,55.286426764517294,11.558408508311802,4250,Hindholm Privatskole,Grundskoler,Friskoler og private grundskoler,"(55.286426764517294, 11.558408508311802)"
440,307300,7.1,7.5,370,55.2712596922968,11.478215035399401,4262,Hårslev Efterskole,Efterskoler,Efterskoler,"(55.2712596922968, 11.478215035399401)"
441,309001,5.4,5.8,326,55.543106975541704,11.223517428497301,4281,Gørlev Skole,Grundskoler,Folkeskoler,"(55.543106975541704, 11.223517428497301)"
442,309002,6.5,6.5,326,55.5141961565784,11.2049327136426,4281,Kirke-Helsinge Skole,Grundskoler,Folkeskoler,"(55.5141961565784, 11.2049327136426)"
443,309004,7.7,7.4,326,55.5225686027602,11.1947562478948,4281,Vinde Helsinge Friskole,Grundskoler,Friskoler og private grundskoler,"(55.5225686027602, 11.1947562478948)"
444,309300,5.9,6.4,326,55.5225686027602,11.1947562478948,4281,Vestsjællands Idrætsefterskole,Efterskoler,Efterskoler,"(55.5225686027602, 11.1947562478948)"
445,311001,5.1,5.8,330,55.2949518962321,11.417510824212501,4261,Dalmose skole,Grundskoler,Folkeskoler,"(55.2949518962321, 11.417510824212501)"
446,311301,7.6,8.0,330,55.3203556359959,11.394026920013198,4200,Flakkebjerg Efterskole,Efterskoler,Efterskoler,"(55.3203556359959, 11.394026920013198)"
447,313007,7.0,7.2,320,55.3156259496872,11.966999663573699,4690,Haslev Privatskole,Grundskoler,Friskoler og private grundskoler,"(55.3156259496872, 11.966999663573699)"
448,315011,8.3,8.0,316,55.7110183393565,11.706754544376302,4300,Holbæk Private Realskole,Grundskoler,Friskoler og private grundskoler,"(55.7110183393565, 11.706754544376302)"
449,315012,7.6,7.6,316,55.700959946858795,11.672676331164801,4300,Stenhus Kostskole,Grundskoler,Friskoler og private grundskoler,"(55.700959946858795, 11.672676331164801)"
450,315013,7.6,7.7,316,55.71234957849521,11.7474491508205,4300,Andreasskolen,Grundskoler,Friskoler og private grundskoler,"(55.71234957849521, 11.7474491508205)"
451,317001,5.2,5.6,326,55.6108088448393,11.229902731240802,4490,Hvidebækskolen,Grundskoler,Folkeskoler,"(55.6108088448393, 11.229902731240802)"
452,317006,5.7,5.9,326,55.62091556516279,11.2075293333314,4490,Friskolen og Idrætsefterskolen Ubby,Grundskoler,Friskoler og private grundskoler,"(55.62091556516279, 11.2075293333314)"
453,317300,5.3,5.7,326,55.62091556516279,11.2075293333314,4490,Friskolen og Idrætsefterskolen Ubby,Efterskoler,Efterskoler,"(55.62091556516279, 11.2075293333314)"
454,319002,5.8,6.4,326,55.509568452254,11.2970228487905,4270,Høng Skole,Grundskoler,Folkeskoler,"(55.509568452254, 11.2970228487905)"
455,319007,6.7,7.1,326,55.5111757505678,11.2888197723704,4270,Høng Privatskole,Grundskoler,Friskoler og private grundskoler,"(55.5111757505678, 11.2888197723704)"
456,319010,6.9,7.0,326,55.5449604258636,11.3009785862,4270,Sæby-Hallenslev Friskole,Grundskoler,Friskoler og private grundskoler,"(55.5449604258636, 11.3009785862)"
457,319300,5.5,6.3,326,55.5150276130037,11.2813408761444,4270,Høng Efterskole,Efterskoler,Efterskoler,"(55.5150276130037, 11.2813408761444)"
458,323001,7.1,7.0,326,55.7014929464505,11.040608060960698,4400,Nyrupskolen,Grundskoler,Folkeskoler,"(55.7014929464505, 11.040608060960698)"
459,323003,6.3,6.3,326,55.6794940894023,11.106600812542501,4400,Rynkevangskolen,Grundskoler,Folkeskoler,"(55.6794940894023, 11.106600812542501)"
460,323010,8.2,7.9,326,55.6920371975583,11.153949293597,4400,Tømmerup Fri- og Efterskole,Grundskoler,Friskoler og private grundskoler,"(55.6920371975583, 11.153949293597)"
461,323013,6.5,6.7,326,55.66964335118179,11.111731667315901,4400,Kalundborg Friskole,Grundskoler,Friskoler og private grundskoler,"(55.66964335118179, 11.111731667315901)"
462,323016,7.1,6.8,326,55.6914362830983,11.085528218920901,4400,Skolen på Herredsåsen,Grundskoler,Folkeskoler,"(55.6914362830983, 11.085528218920901)"
463,323300,6.8,7.0,326,55.6920371975583,11.153949293597,4400,Tømmerup Fri- og Efterskole,Efterskoler,Efterskoler,"(55.6920371975583, 11.153949293597)"
464,325001,6.4,6.3,330,55.342019113046206,11.125635481891699,4220,Broskolen,Grundskoler,Folkeskoler,"(55.342019113046206, 11.125635481891699)"
465,325003,6.5,6.5,330,55.329322884244,11.142559660371099,4220,Baggesenskolen,Grundskoler,Folkeskoler,"(55.329322884244, 11.142559660371099)"
466,325005,6.6,6.5,330,55.3572413926249,11.1859295242242,4220,Tårnborg Skole,Grundskoler,Folkeskoler,"(55.3572413926249, 11.1859295242242)"
467,325006,6.7,7.0,330,55.3627955522515,11.2639920142948,4241,Vemmelev Skole,Grundskoler,Folkeskoler,"(55.3627955522515, 11.2639920142948)"
468,325007,8.3,7.8,330,55.3707312209931,11.2604558606115,4241,Forlev Friskole,Grundskoler,Friskoler og private grundskoler,"(55.3707312209931, 11.2604558606115)"
469,325008,8.7,8.2,330,55.327626976507304,11.1436726005265,4220,Helms Skole,Grundskoler,Friskoler og private grundskoler,"(55.327626976507304, 11.1436726005265)"
470,327002,8.0,7.8,306,55.93115273126679,11.743396932269599,4581,Rørvig Friskole,Grundskoler,Friskoler og private grundskoler,"(55.93115273126679, 11.743396932269599)"
471,329017,8.7,8.2,329,55.4463485168664,11.794785659521501,4100,Sct Joseph Skole,Grundskoler,Friskoler og private grundskoler,"(55.4463485168664, 11.794785659521501)"
472,329018,7.6,7.3,329,55.4422175263705,11.8029910079943,4100,Ringsted Privatskole,Grundskoler,Friskoler og private grundskoler,"(55.4422175263705, 11.8029910079943)"
473,329022,7.2,7.4,329,55.443972682543794,11.7278283153094,4100,Ringsted Ny Friskole,Grundskoler,Friskoler og private grundskoler,"(55.443972682543794, 11.7278283153094)"
474,331003,7.0,6.6,330,55.2553967569699,11.3113475226367,4230,Eggeslevmagle Skole,Grundskoler,Folkeskoler,"(55.2553967569699, 11.3113475226367)"
475,331007,6.1,6.3,330,55.253508724496,11.2843658438436,4230,Skælskør Skole,Grundskoler,Folkeskoler,"(55.253508724496, 11.2843658438436)"
476,331008,8.3,8.1,330,55.3115016297686,11.2309661663104,4242,Lille Egede Friskole,Grundskoler,Friskoler og private grundskoler,"(55.3115016297686, 11.2309661663104)"
477,333004,6.4,6.6,330,55.4009519845084,11.329370314869001,4200,Marievangsskolen,Grundskoler,Folkeskoler,"(55.4009519845084, 11.329370314869001)"
478,333005,6.5,6.3,330,55.4106275752843,11.3683735135771,4200,Nymarkskolen,Grundskoler,Folkeskoler,"(55.4106275752843, 11.3683735135771)"
479,333008,6.7,6.8,330,55.430122,11.241421,4200,Stillinge Skole,Grundskoler,Folkeskoler,"(55.430122, 11.241421)"
480,333011,6.3,6.3,330,55.4066212909937,11.386161080302,4200,Søndermarksskolen,Grundskoler,Folkeskoler,"(55.4066212909937, 11.386161080302)"
481,333012,8.0,7.8,330,55.394484818032204,11.332691334646402,4200,Landsgrav Friskole,Grundskoler,Friskoler og private grundskoler,"(55.394484818032204, 11.332691334646402)"
483,333015,6.4,6.6,330,55.392905729937496,11.356366094892099,4200,Antvorskov Skole,Grundskoler,Folkeskoler,"(55.392905729937496, 11.356366094892099)"
484,333023,5.8,6.7,330,55.4007147425116,11.282424405479,4200,Trelleborg Friskole,Grundskoler,Friskoler og private grundskoler,"(55.4007147425116, 11.282424405479)"
485,335002,7.6,7.5,340,55.4125797589141,11.558438579309302,4180,Frederiksberg Skole,Grundskoler,Folkeskoler,"(55.4125797589141, 11.558438579309302)"
486,335003,6.2,6.7,340,55.462278193070205,11.5530353951563,4180,Pedersborg Skole,Grundskoler,Folkeskoler,"(55.462278193070205, 11.5530353951563)"
487,335005,7.6,6.9,340,55.435779913261996,11.5594244239131,4180,Sorø Borgerskole,Grundskoler,Folkeskoler,"(55.435779913261996, 11.5594244239131)"
488,335006,8.8,8.1,340,55.4357275515217,11.5565344390053,4180,Sorø Privatskole,Grundskoler,Friskoler og private grundskoler,"(55.4357275515217, 11.5565344390053)"
489,335300,6.6,7.2,340,55.396934378856706,11.548055911786099,4180,Sorø Gymnastikefterskole,Efterskoler,Efterskoler,"(55.396934378856706, 11.548055911786099)"
490,337004,7.2,6.9,340,55.5353013335204,11.5886919060123,4295,Stenlille Skole,Grundskoler,Folkeskoler,"(55.5353013335204, 11.5886919060123)"
491,341300,6.2,7.2,316,55.6873036373553,11.477243243794199,4440,Efterskolen Smededal,Efterskoler,Efterskoler,"(55.6873036373553, 11.477243243794199)"
492,345006,6.3,6.9,316,55.6124546769857,11.7771067067769,4340,"Tølløse Privat- og Efterskole, Baptisternes Skoler",Grundskoler,Friskoler og private grundskoler,"(55.6124546769857, 11.7771067067769)"
493,345007,8.6,8.2,316,55.612721975217504,11.7699936827735,4340,Sejergaardsskolen,Grundskoler,Friskoler og private grundskoler,"(55.612721975217504, 11.7699936827735)"
494,345300,6.9,7.4,316,55.6124546769857,11.7771067067769,4340,"Tølløse Privat- og Efterskole, Baptisternes Efterskoler",Efterskoler,Efterskoler,"(55.6124546769857, 11.7771067067769)"
495,351301,5.8,6.8,320,55.204899042717294,12.146959931751699,4654,Faxehus Efterskole,Efterskoler,Efterskoler,"(55.204899042717294, 12.146959931751699)"
496,359006,3.5,4.3,360,54.7795302778823,11.298326833688801,4920,Reventlow Lilleskole,Grundskoler,Friskoler og private grundskoler,"(54.7795302778823, 11.298326833688801)"
497,359301,4.3,5.3,360,54.8975282141232,11.2611568460625,4943,Pederstrup Efterskole,Efterskoler,Efterskoler,"(54.8975282141232, 11.2611568460625)"
498,359302,5.6,6.6,360,54.8490910135613,11.235101041912902,4900,Halstedhus Efterskole,Efterskoler,Efterskoler,"(54.8490910135613, 11.235101041912902)"
503,360300,5.7,5.5,360,54.8645199830998,11.2763874621257,4953,Vesterborg Efterskole,Efterskoler,Efterskoler,"(54.8645199830998, 11.2763874621257)"
504,361005,7.8,7.6,390,55.0372668633823,12.019161820465099,4735,Friskolen Øster Egesborg,Grundskoler,Friskoler og private grundskoler,"(55.0372668633823, 12.019161820465099)"
505,363009,8.1,7.8,360,54.7747641726968,11.509800005909,4930,Sankt Birgitta Skole,Grundskoler,Friskoler og private grundskoler,"(54.7747641726968, 11.509800005909)"
506,365008,5.7,6.4,390,54.9205358354309,12.0445522779687,4793,Bogø Kostskole,Grundskoler,Friskoler og private grundskoler,"(54.9205358354309, 12.0445522779687)"
507,365302,7.2,7.3,390,54.9205358354309,12.0445522779687,4793,Idrætsefterskolen Grønsund,Efterskoler,Efterskoler,"(54.9205358354309, 12.0445522779687)"
508,367006,7.4,7.5,360,54.832532618036005,11.135902839931,4900,Privatskolen Nakskov,Grundskoler,Friskoler og private grundskoler,"(54.832532618036005, 11.135902839931)"
509,369002,6.2,6.7,376,54.774043340666196,11.8777343826404,4800,Sophieskolen,Grundskoler,Folkeskoler,"(54.774043340666196, 11.8777343826404)"
510,369005,6.4,6.8,376,54.76215336857929,11.8448932741895,4800,SUNDskolen,Grundskoler,Folkeskoler,"(54.76215336857929, 11.8448932741895)"
511,369008,6.2,6.6,376,54.7602505254327,11.879190402562802,4800,Østre Skole,Grundskoler,Folkeskoler,"(54.7602505254327, 11.879190402562802)"
512,369009,6.6,6.7,376,54.7536461205954,11.893968232592302,4800,Lindeskovskolen,Grundskoler,Folkeskoler,"(54.7536461205954, 11.893968232592302)"
513,369010,8.6,7.9,376,54.7686387046545,11.872371339498901,4800,Nykøbing F Realskole,Grundskoler,Friskoler og private grundskoler,"(54.7686387046545, 11.872371339498901)"
514,369011,7.9,7.8,376,54.764186054759996,11.877534851616302,4800,Sct. Joseph Søstrenes Skole,Grundskoler,Friskoler og private grundskoler,"(54.764186054759996, 11.877534851616302)"
515,369018,7.2,7.5,376,54.801920379220704,11.8826732292291,4800,Nordbyskolen,Grundskoler,Folkeskoler,"(54.801920379220704, 11.8826732292291)"
516,371004,5.8,6.0,376,54.659024439682504,11.741978496861401,4880,Nysted Skole,Grundskoler,Folkeskoler,"(54.659024439682504, 11.741978496861401)"
517,371300,3.3,5.1,376,54.660160027515204,11.7345630681783,4880,Nysted Efterskole,Efterskoler,Efterskoler,"(54.660160027515204, 11.7345630681783)"
518,373018,8.1,8.0,370,55.2262220642248,11.767097493322899,4700,Vor Frue Skole,Grundskoler,Friskoler og private grundskoler,"(55.2262220642248, 11.767097493322899)"
519,373024,8.6,8.1,370,55.2458162,11.74633787,4700,Herlufsholm Skole og Gods,Grundskoler,Friskoler og private grundskoler,"(55.2458162, 11.74633787)"
520,373030,6.4,6.6,370,55.2812058979645,11.732584581807401,4700,Næstved Fri Skole,Grundskoler,Friskoler og private grundskoler,"(55.2812058979645, 11.732584581807401)"
521,373300,8.3,8.4,370,55.1702871498544,11.766909974900901,4700,Svenstrup Efterskole,Efterskoler,Efterskoler,"(55.1702871498544, 11.766909974900901)"
522,375001,6.0,6.3,376,54.8955546150778,11.881174696944699,4840,Nr Alslev Skole,Grundskoler,Folkeskoler,"(54.8955546150778, 11.881174696944699)"
523,375003,5.2,5.5,376,54.9288468795029,11.8375114577477,4840,Nr. Vedby skole & Børnehus,Grundskoler,Folkeskoler,"(54.9288468795029, 11.8375114577477)"
524,375004,5.2,5.6,376,54.8569517325445,11.8714761350242,4863,Eskilstrup Skole,Grundskoler,Folkeskoler,"(54.8569517325445, 11.8714761350242)"
525,375005,5.7,5.8,376,54.919296262808196,11.9511574012216,4840,Skovby Friskole,Grundskoler,Friskoler og private grundskoler,"(54.919296262808196, 11.9511574012216)"
526,379008,7.2,6.9,360,54.911681138285104,11.217668354610801,4913,Horslunde Realskole,Grundskoler,Friskoler og private grundskoler,"(54.911681138285104, 11.217668354610801)"
527,383300,4.6,5.9,360,54.66858575320639,11.338827794611099,4970,Bindernæs Efterskole,Efterskoler,Efterskoler,"(54.66858575320639, 11.338827794611099)"
528,385004,8.0,7.9,320,55.3132542382382,12.095841519191,4682,Druestrup Friskole,Grundskoler,Friskoler og private grundskoler,"(55.3132542382382, 12.095841519191)"
529,387005,6.1,6.6,376,54.7977656524661,11.6233542931262,4990,Sakskøbing Skole,Grundskoler,Folkeskoler,"(54.7977656524661, 11.6233542931262)"
530,389008,6.5,6.6,336,55.314785208768704,12.385756835947198,4660,Store Heddinge Skole,Grundskoler,Folkeskoler,"(55.314785208768704, 12.385756835947198)"
531,389009,7.5,7.4,336,55.25799905534121,12.3787923741178,4673,Stevns Friskole,Grundskoler,Friskoler og private grundskoler,"(55.25799905534121, 12.3787923741178)"
532,389300,7.4,7.2,336,55.27219907368521,12.3241603660195,4660,Gymnastikefterskolen Stevns,Efterskoler,Efterskoler,"(55.27219907368521, 12.3241603660195)"
533,391002,7.5,7.3,376,54.8004954460264,11.9926354245102,4800,Møllebakkeskolen,Grundskoler,Folkeskoler,"(54.8004954460264, 11.9926354245102)"
534,391003,6.3,6.1,376,54.8893483098725,12.037653992079802,4850,Stubbekøbing Skole,Grundskoler,Folkeskoler,"(54.8893483098725, 12.037653992079802)"
535,391300,6.1,6.9,376,54.868173263154105,12.1152019712643,4850,Næsgaard Efterskole,Efterskoler,Efterskoler,"(54.868173263154105, 12.1152019712643)"
536,395002,5.6,5.9,376,54.709308892766295,11.9194489224436,4873,Sydfalster Skole,Grundskoler,Folkeskoler,"(54.709308892766295, 11.9194489224436)"
537,397014,4.8,5.3,390,55.0699523979872,11.885693342842698,4760,Sværdborg Friskole,Grundskoler,Friskoler og private grundskoler,"(55.0699523979872, 11.885693342842698)"
538,397303,5.7,6.4,390,55.106265910480204,11.869565858245899,4750,Lundby Efterskole,Efterskoler,Efterskoler,"(55.106265910480204, 11.869565858245899)"
539,400001,7.7,7.0,400,55.283627352248104,14.7922039599043,3770,Kongeskærskolen,Grundskoler,Folkeskoler,"(55.283627352248104, 14.7922039599043)"
540,400006,6.0,6.1,400,55.1642195045095,14.9698652198711,3760,Friskolen Østerlars,Grundskoler,Friskoler og private grundskoler,"(55.1642195045095, 14.9698652198711)"
541,400014,7.4,7.1,400,55.0673926473094,15.1239753583562,3730,Paradisbakkeskolen,Grundskoler,Folkeskoler,"(55.0673926473094, 15.1239753583562)"
542,400021,7.5,7.7,400,55.0982217754126,14.7032929006073,3700,Rønne Privatskole,Grundskoler,Friskoler og private grundskoler,"(55.0982217754126, 14.7032929006073)"
543,400024,8.0,7.4,400,55.124088926073796,14.7416720941652,3700,"Peterskolen, Rønne Kristne Friskole",Grundskoler,Friskoler og private grundskoler,"(55.124088926073796, 14.7416720941652)"
544,400034,7.5,7.1,400,55.069166228971795,14.923020926712198,3720,Davidskolen,Grundskoler,Friskoler og private grundskoler,"(55.069166228971795, 14.923020926712198)"
545,400037,6.1,6.2,400,55.14069313140121,14.7592834676684,3700,Bornholms Frie Idrætsskole,Grundskoler,Friskoler og private grundskoler,"(55.14069313140121, 14.7592834676684)"
546,400038,6.4,6.7,400,55.028926880839,14.9815820515889,3720,Sydbornholms Privatskole,Grundskoler,Friskoler og private grundskoler,"(55.028926880839, 14.9815820515889)"
548,400042,7.3,6.6,400,55.07217656466471,14.916313696472699,3720,Hans Rømer Skolen,Grundskoler,Folkeskoler,"(55.07217656466471, 14.916313696472699)"
549,400301,4.4,5.4,400,55.12104112768171,14.704278348692,3700,Bornholms Efterskole,Efterskoler,Efterskoler,"(55.12104112768171, 14.704278348692)"
550,410300,7.8,7.9,410,55.4862552330471,9.91059237840028,5466,Den Rytmiske Efterskole i Baaring,Efterskoler,Efterskoler,"(55.4862552330471, 9.91059237840028)"
551,421003,7.6,7.1,420,55.241372953130295,9.975771239712449,5631,Ebberup Skole,Grundskoler,Folkeskoler,"(55.241372953130295, 9.975771239712449)"
552,421007,7.4,7.6,420,55.268643016098096,9.892977777302288,5610,Strandmølleskolen,Grundskoler,Friskoler og private grundskoler,"(55.268643016098096, 9.892977777302288)"
553,421009,6.7,6.5,420,55.273770869272205,9.90386968827783,5610,Assensskolen,Grundskoler,Folkeskoler,"(55.273770869272205, 9.90386968827783)"
554,423001,6.3,6.4,480,55.566278337496996,10.0934474898741,5400,Bogense Skole,Grundskoler,Folkeskoler,"(55.566278337496996, 10.0934474898741)"
555,425005,7.3,7.0,430,55.2505106193776,10.2212601276176,5672,Broby Fri- og Efterskole,Grundskoler,Friskoler og private grundskoler,"(55.2505106193776, 10.2212601276176)"
556,425300,5.8,6.7,430,55.2505106193776,10.2212601276176,5672,Broby Fri- og Efterskole,Efterskoler,Efterskoler,"(55.2505106193776, 10.2212601276176)"
558,427010,7.6,7.6,479,55.0746750252811,10.435302164302,5762,Vester Skerninge Friskole,Grundskoler,Friskoler og private grundskoler,"(55.0746750252811, 10.435302164302)"
559,429001,6.3,6.2,410,55.4814864622688,9.97911717549699,5464,Anna Trolles Skole,Grundskoler,Folkeskoler,"(55.4814864622688, 9.97911717549699)"
560,429002,6.8,6.7,410,55.434336087198105,9.93843797397714,5592,Ejby Skole,Grundskoler,Folkeskoler,"(55.434336087198105, 9.93843797397714)"
561,429006,8.9,7.6,410,55.489994414826,9.97375765980014,5464,Brenderup og Omegns Realskole,Grundskoler,Friskoler og private grundskoler,"(55.489994414826, 9.97375765980014)"
562,431300,7.7,7.8,430,55.1624664885486,10.383881204332699,5600,Bernstorffsminde Efterskole,Efterskoler,Efterskoler,"(55.1624664885486, 10.383881204332699)"
563,431301,5.0,5.7,430,55.14467627135429,10.3323583154972,5600,Korinth Efterskole,Efterskoler,Efterskoler,"(55.14467627135429, 10.3323583154972)"
564,431304,6.6,7.1,430,55.1029785510361,10.1805146215223,5600,Faaborgegnens Efterskole,Efterskoler,Efterskoler,"(55.1029785510361, 10.1805146215223)"
565,433003,7.3,6.8,420,55.274709217872804,10.109493932581199,5620,Glamsbjergskolen,Grundskoler,Folkeskoler,"(55.274709217872804, 10.109493932581199)"
566,433005,6.8,6.9,420,55.28341827319,10.110368964544302,5620,Glamsbjerg Fri-og Efterskole,Grundskoler,Friskoler og private grundskoler,"(55.28341827319, 10.110368964544302)"
567,433008,5.9,6.3,420,55.269625864515895,10.1152403463919,5620,Køng Idrætsfriskole,Grundskoler,Friskoler og private grundskoler,"(55.269625864515895, 10.1152403463919)"
568,433300,6.6,6.7,420,55.28341827319,10.110368964544302,5620,Glamsbjerg Fri- og Efterskole,Efterskoler,Efterskoler,"(55.28341827319, 10.110368964544302)"
569,433303,6.6,6.9,420,55.271405314801704,10.114248212264199,5620,Glamsdalens Idrætsefterskole,Efterskoler,Efterskoler,"(55.271405314801704, 10.114248212264199)"
570,435006,7.3,7.1,479,55.120982779177396,10.7267732772785,5883,Oure Friskole,Grundskoler,Friskoler og private grundskoler,"(55.120982779177396, 10.7267732772785)"
571,435300,7.3,7.8,479,55.110103002338,10.7345945211433,5882,Vejstrup Efterskole,Efterskoler,Efterskoler,"(55.110103002338, 10.7345945211433)"
573,437002,6.9,6.8,420,55.2218235803494,10.125489872854,5683,Hårby Skole,Grundskoler,Folkeskoler,"(55.2218235803494, 10.125489872854)"
574,439001,7.4,7.1,440,55.51790680025889,10.658261460946198,5380,Hindsholms børn & unge,Grundskoler,Folkeskoler,"(55.51790680025889, 10.658261460946198)"
575,439006,7.2,6.7,440,55.410795053823,10.5956733897267,5300,Nymarken Skole og Børnehus,Grundskoler,Folkeskoler,"(55.410795053823, 10.5956733897267)"
576,439007,7.2,7.3,440,55.41942429052771,10.6537940118002,5300,Kertemindeegnens Friskole,Grundskoler,Friskoler og private grundskoler,"(55.41942429052771, 10.6537940118002)"
577,439300,6.3,6.7,440,55.465962677675,10.6135426370142,5300,Kerteminde Efterskole,Efterskoler,Efterskoler,"(55.465962677675, 10.6135426370142)"
578,441002,7.6,7.1,440,55.355506373588895,10.6003033720958,5550,Langeskov Skole,Grundskoler,Folkeskoler,"(55.355506373588895, 10.6003033720958)"
579,443002,7.1,7.0,492,54.8564842976439,10.5097625668119,5960,Marstal Skole,Grundskoler,Folkeskoler,"(54.8564842976439, 10.5097625668119)"
580,445002,7.3,7.1,410,55.4855457719436,9.78658393441898,5500,Hyllehøjskolen,Grundskoler,Folkeskoler,"(55.4855457719436, 9.78658393441898)"
581,445003,7.4,7.6,410,55.5386431702286,9.7742114389937,5500,Strib Skole,Grundskoler,Folkeskoler,"(55.5386431702286, 9.7742114389937)"
582,445004,7.2,7.1,410,55.5046122341385,9.729542579970401,5500,Vestre Skole,Grundskoler,Folkeskoler,"(55.5046122341385, 9.729542579970401)"
583,445005,7.6,7.1,410,55.500077931335404,9.74169488824609,5500,Østre Skole,Grundskoler,Folkeskoler,"(55.500077931335404, 9.74169488824609)"
584,445008,7.7,7.5,410,55.493854085841704,9.74876847390725,5500,Lillebæltskolen,Grundskoler,Folkeskoler,"(55.493854085841704, 9.74876847390725)"
585,445010,8.0,7.9,410,55.499902107147705,9.72318121375711,5500,Fænøsund Friskole,Grundskoler,Friskoler og private grundskoler,"(55.499902107147705, 9.72318121375711)"
586,445302,5.8,6.6,410,55.537002666061404,9.801818593020029,5500,Billeshave Efterskole,Efterskoler,Efterskoler,"(55.537002666061404, 9.801818593020029)"
587,449002,6.2,6.5,450,55.313946753890804,10.7978860679214,5800,Birkhovedskolen,Grundskoler,Folkeskoler,"(55.313946753890804, 10.7978860679214)"
588,449007,6.9,6.6,450,55.3217814678337,10.779568085955699,5800,Danehofskolen,Grundskoler,Folkeskoler,"(55.3217814678337, 10.779568085955699)"
589,449008,8.4,8.0,450,55.311383141579896,10.798296204507599,5800,Nyborg Private Realskole,Grundskoler,Friskoler og private grundskoler,"(55.311383141579896, 10.798296204507599)"
590,449009,8.0,7.9,450,55.308653673235504,10.7829505776994,5800,Nyborg Friskole,Grundskoler,Friskoler og private grundskoler,"(55.308653673235504, 10.7829505776994)"
591,451002,7.8,7.4,410,55.45287768545779,9.86903617076002,5580,Nørre Aaby Skole,Grundskoler,Folkeskoler,"(55.45287768545779, 9.86903617076002)"
592,451003,8.0,7.5,410,55.460423917994206,9.86801788468452,5580,Nørre Aaby Realskole,Grundskoler,Friskoler og private grundskoler,"(55.460423917994206, 9.86801788468452)"
593,451300,7.7,7.6,410,55.4548684248392,9.8890417098819,5580,Nørre Aaby Efterskole,Efterskoler,Efterskoler,"(55.4548684248392, 9.8890417098819)"
594,451301,7.8,7.9,410,55.4607270706409,9.82275630657511,5580,Vesterdal Efterskole,Efterskoler,Efterskoler,"(55.4607270706409, 9.82275630657511)"
595,451304,8.0,8.2,410,55.4580717602382,9.873564475742949,5580,Eisbjerghus Internationale Efterskole,Efterskoler,Efterskoler,"(55.4580717602382, 9.873564475742949)"
596,461001,6.3,6.6,461,55.430453981339504,10.481163954495198,5320,Agedrup Skole,Grundskoler,Folkeskoler,"(55.430453981339504, 10.481163954495198)"
597,461003,5.9,6.1,461,55.3582541316934,10.3795727255795,5260,Dalumskolen,Grundskoler,Folkeskoler,"(55.3582541316934, 10.3795727255795)"
598,461007,7.4,7.5,461,55.3611532303063,10.3994059227823,5260,Hjalleseskolen,Grundskoler,Folkeskoler,"(55.3611532303063, 10.3994059227823)"
599,461008,7.8,8.0,461,55.3868218400562,10.3718157797065,5000,Hunderupskolen,Grundskoler,Folkeskoler,"(55.3868218400562, 10.3718157797065)"
600,461009,7.5,7.5,461,55.332948816895104,10.4412336415434,5260,Højby Skole,Grundskoler,Folkeskoler,"(55.332948816895104, 10.4412336415434)"
601,461010,6.8,7.0,461,55.351940868428,10.338796137754,5250,Højmeskolen,Grundskoler,Folkeskoler,"(55.351940868428, 10.338796137754)"
602,461013,6.8,6.8,461,55.420040003908206,10.266140026226,5210,Korup Skole,Grundskoler,Folkeskoler,"(55.420040003908206, 10.266140026226)"
603,461014,6.3,6.1,461,55.3865292650224,10.417130531336198,5230,Ejerslykkeskolen,Grundskoler,Folkeskoler,"(55.3865292650224, 10.417130531336198)"
604,461015,7.9,7.1,461,55.4249272617266,10.350799610756098,5270,Kroggårdsskolen,Grundskoler,Folkeskoler,"(55.4249272617266, 10.350799610756098)"
605,461017,7.4,7.2,461,55.3863936260693,10.398569226320198,5230,Munkebjergskolen,Grundskoler,Folkeskoler,"(55.3863936260693, 10.398569226320198)"
606,461018,7.2,7.0,461,55.4168927051385,10.3577823322391,5270,Næsby Skole,Grundskoler,Folkeskoler,"(55.4168927051385, 10.3577823322391)"
607,461019,6.7,6.4,461,55.391986841510295,10.339995801657698,5200,Provstegårdskolen,Grundskoler,Folkeskoler,"(55.391986841510295, 10.339995801657698)"
608,461020,7.5,7.7,461,55.4084805877178,10.3153049690984,5210,Paarup Skole,Grundskoler,Folkeskoler,"(55.4084805877178, 10.3153049690984)"
609,461021,7.3,7.5,461,55.343182279017704,10.2920672120874,5250,Rasmus Rask-Skolen,Grundskoler,Folkeskoler,"(55.343182279017704, 10.2920672120874)"
610,461022,5.7,5.9,461,55.4079082173259,10.4138370973032,5000,Risingskolen,Grundskoler,Folkeskoler,"(55.4079082173259, 10.4138370973032)"
611,461023,8.3,7.7,461,55.3692162903776,10.3470593309445,5250,Sanderumskolen,Grundskoler,Folkeskoler,"(55.3692162903776, 10.3470593309445)"
612,461024,7.2,6.9,461,55.41474288676871,10.3966528028556,5000,Sct Hans Skole,Grundskoler,Folkeskoler,"(55.41474288676871, 10.3966528028556)"
613,461025,5.6,5.8,461,55.4265140630445,10.4455372161955,5240,Seden Skole,Grundskoler,Folkeskoler,"(55.4265140630445, 10.4455372161955)"
614,461026,7.8,7.6,461,55.3357068850455,10.3453907026905,5260,Skt Klemensskolen,Grundskoler,Folkeskoler,"(55.3357068850455, 10.3453907026905)"
615,461030,7.1,7.1,461,55.4095561177683,10.350340640385099,5210,Tarup Skole,Grundskoler,Folkeskoler,"(55.4095561177683, 10.350340640385099)"
616,461031,6.5,6.5,461,55.3403621044986,10.502337773617,5220,Tingkærskolen,Grundskoler,Folkeskoler,"(55.3403621044986, 10.502337773617)"
617,461032,7.8,7.8,461,55.368609802879,10.366488212647,5250,Tingløkkeskolen,Grundskoler,Folkeskoler,"(55.368609802879, 10.366488212647)"
618,461034,7.2,7.0,461,55.3958964583195,10.2541240395181,5491,Ubberud Skole,Grundskoler,Folkeskoler,"(55.3958964583195, 10.2541240395181)"
619,461035,7.4,7.6,461,55.39354491590839,10.374035028189,5000,Vestre Skole,Grundskoler,Folkeskoler,"(55.39354491590839, 10.374035028189)"
620,461038,6.7,6.4,461,55.3792294816974,10.423962207866401,5230,Rosengårdskolen,Grundskoler,Folkeskoler,"(55.3792294816974, 10.423962207866401)"
621,461039,5.1,5.4,461,55.4097882646929,10.4289090992824,5240,Abildgårdskolen,Grundskoler,Folkeskoler,"(55.4097882646929, 10.4289090992824)"
622,461040,8.4,8.2,461,55.39198627727329,10.389767460860801,5000,Giersings Realskole,Grundskoler,Friskoler og private grundskoler,"(55.39198627727329, 10.389767460860801)"
623,461041,8.3,8.1,461,55.338323032051704,10.4321061313356,5260,Højby Friskole,Grundskoler,Friskoler og private grundskoler,"(55.338323032051704, 10.4321061313356)"
624,461042,8.5,8.4,461,55.3991264122626,10.382517662949901,5000,Henriette Hørlucks Skole,Grundskoler,Friskoler og private grundskoler,"(55.3991264122626, 10.382517662949901)"
625,461043,8.0,7.7,461,55.3996115401926,10.3873340247007,5000,Marie Jørgensens Skole,Grundskoler,Friskoler og private grundskoler,"(55.3996115401926, 10.3873340247007)"
626,461044,8.0,8.0,461,55.3920226960252,10.397155467019301,5000,Odense Friskole,Grundskoler,Friskoler og private grundskoler,"(55.3920226960252, 10.397155467019301)"
627,461045,8.4,8.2,461,55.396566555792596,10.391420046446099,5000,Sct. Albani Skole,Grundskoler,Friskoler og private grundskoler,"(55.396566555792596, 10.391420046446099)"
628,461046,8.1,7.6,461,55.4382520821888,10.3981827524802,5270,Stige Friskole,Grundskoler,Friskoler og private grundskoler,"(55.4382520821888, 10.3981827524802)"
629,461047,6.9,7.4,461,55.3311507004373,10.3275909933975,5260,Ådalskolen,Grundskoler,Friskoler og private grundskoler,"(55.3311507004373, 10.3275909933975)"
630,461053,8.8,8.2,461,55.339139661886996,10.2920363762569,5250,Kratholmskolen,Grundskoler,Friskoler og private grundskoler,"(55.339139661886996, 10.2920363762569)"
631,461060,7.0,6.8,461,55.433036286252005,10.378715102312801,5270,Søhusskolen,Grundskoler,Folkeskoler,"(55.433036286252005, 10.378715102312801)"
632,461064,6.9,7.0,461,55.366096858681296,10.449727711756301,5220,Holluf Pile Skole,Grundskoler,Folkeskoler,"(55.366096858681296, 10.449727711756301)"
633,461068,8.3,8.2,461,55.362044051596,10.399682588502301,5260,Lilleskolen Odense,Grundskoler,Friskoler og private grundskoler,"(55.362044051596, 10.399682588502301)"
634,461070,6.9,6.2,461,55.4288811355447,10.4806549164228,5320,Al-Salahiyah Skolen,Grundskoler,Friskoler og private grundskoler,"(55.4288811355447, 10.4806549164228)"
635,461075,5.4,5.6,461,55.4149155914901,10.4289478420226,5240,H. C. Andersen Skolen,Grundskoler,Folkeskoler,"(55.4149155914901, 10.4289478420226)"
636,461078,7.4,7.7,461,55.397662352611505,10.3847505801751,5000,Det Kongelige Teater Balletskolen Odense,Grundskoler,Friskoler og private grundskoler,"(55.397662352611505, 10.3847505801751)"
637,471005,6.2,6.3,480,55.574038579235705,10.3684792709908,5450,Kystskolen,Grundskoler,Folkeskoler,"(55.574038579235705, 10.3684792709908)"
638,471008,6.4,6.7,480,55.510998847109995,10.3943940584758,5450,Sletten Skole,Grundskoler,Folkeskoler,"(55.510998847109995, 10.3943940584758)"
639,471011,7.2,7.4,480,55.5134410328162,10.3972224825159,5450,Otterup Realskole,Grundskoler,Friskoler og private grundskoler,"(55.5134410328162, 10.3972224825159)"
640,471302,4.6,5.3,480,55.6054843370975,10.333698947061801,5450,Efterskolen Flyvesandet,Efterskoler,Efterskoler,"(55.6054843370975, 10.333698947061801)"
641,473009,7.0,6.8,430,55.2311294892456,10.4874215539868,5750,Tingagerskolen,Grundskoler,Folkeskoler,"(55.2311294892456, 10.4874215539868)"
642,473011,7.5,7.0,430,55.2069489333149,10.353670259461,5750,Hjemly Friskole,Grundskoler,Friskoler og private grundskoler,"(55.2069489333149, 10.353670259461)"
644,473014,4.4,4.9,430,55.2343569095426,10.4732767367819,5750,Ringe Kost- og Realskole,Grundskoler,Friskoler og private grundskoler,"(55.2343569095426, 10.4732767367819)"
645,473020,6.7,6.8,430,55.2392235441673,10.471939547911099,5750,Nordagerskolen,Grundskoler,Folkeskoler,"(55.2392235441673, 10.471939547911099)"
647,473301,7.4,7.6,430,55.240118588766,10.4698963208031,5750,Ringe Fri- og Efterskole,Efterskoler,Efterskoler,"(55.240118588766, 10.4698963208031)"
648,475301,6.4,7.2,482,54.940824229247504,10.7305298041849,5900,Langelands Efterskole,Efterskoler,Efterskoler,"(54.940824229247504, 10.7305298041849)"
649,477004,6.1,6.4,430,55.217826104723606,10.5918737321147,5854,Gislev Friskole,Grundskoler,Friskoler og private grundskoler,"(55.217826104723606, 10.5918737321147)"
650,479008,7.6,7.2,479,55.03856750127271,10.54058376122,5700,Rantzausminde Skole,Grundskoler,Folkeskoler,"(55.03856750127271, 10.54058376122)"
651,479013,8.3,8.1,479,55.062574581720504,10.604334538143199,5700,Haahrs Skole,Grundskoler,Friskoler og private grundskoler,"(55.062574581720504, 10.604334538143199)"
652,479014,6.8,7.4,479,55.058046990478495,10.6085816517359,5700,Ida Holsts Skole,Grundskoler,Friskoler og private grundskoler,"(55.058046990478495, 10.6085816517359)"
653,479016,8.2,8.0,479,55.098403316130295,10.703491953607301,5881,Øster Åby Friskole,Grundskoler,Friskoler og private grundskoler,"(55.098403316130295, 10.703491953607301)"
654,479300,5.2,6.3,479,55.0601705882421,10.649937603971699,5700,Svendborg Medie & Sportsefterskole,Efterskoler,Efterskoler,"(55.0601705882421, 10.649937603971699)"
655,481302,8.4,8.3,482,54.828975385245506,10.6997234385201,5932,Musikefterskolen i Humble,Efterskoler,Efterskoler,"(54.828975385245506, 10.6997234385201)"
656,482002,6.1,6.4,482,54.931660446668,10.7324797329831,5900,Ørstedskolen,Grundskoler,Folkeskoler,"(54.931660446668, 10.7324797329831)"
657,483002,8.0,7.6,480,55.44377194945189,10.1954618806858,5462,Havrehedskolen,Grundskoler,Folkeskoler,"(55.44377194945189, 10.1954618806858)"
658,483003,6.1,6.2,480,55.5126400441716,10.1735896521451,5471,Særslev-Hårslev-Skolen,Grundskoler,Folkeskoler,"(55.5126400441716, 10.1735896521451)"
659,483004,7.0,6.7,480,55.48794585758449,10.2499368661636,5471,Søndersøskolen,Grundskoler,Folkeskoler,"(55.48794585758449, 10.2499368661636)"
660,483300,6.5,6.9,480,55.513946019650604,10.1787030985273,5471,Nordfyns Efterskole,Efterskoler,Efterskoler,"(55.513946019650604, 10.1787030985273)"
661,485003,6.8,6.8,420,55.345043336751395,10.179154576817801,5690,Tallerupskolen,Grundskoler,Folkeskoler,"(55.345043336751395, 10.179154576817801)"
662,485004,7.8,7.3,420,55.3217968191104,10.2035833590548,5690,Tommerup Skole,Grundskoler,Folkeskoler,"(55.3217968191104, 10.2035833590548)"
663,485302,3.9,4.9,420,55.3295810230279,10.2171295552519,5690,Vestfyns Efterskole,Efterskoler,Efterskoler,"(55.3295810230279, 10.2171295552519)"
664,489002,6.3,6.4,450,55.3598901409774,10.6710244517774,5540,Vibeskolen,Grundskoler,Folkeskoler,"(55.3598901409774, 10.6710244517774)"
665,491005,6.8,6.8,420,55.3879643696426,10.133960674361001,5492,Vissenbjerg Skole,Grundskoler,Folkeskoler,"(55.3879643696426, 10.133960674361001)"
666,495005,7.6,6.8,450,55.25312479109589,10.6736061646598,5853,4kløverskolen,Grundskoler,Folkeskoler,"(55.25312479109589, 10.6736061646598)"
667,495006,5.0,5.3,450,55.280171015282704,10.687029196559699,5853,Refsvindinge Friskole,Grundskoler,Friskoler og private grundskoler,"(55.280171015282704, 10.687029196559699)"
668,495007,5.7,6.1,450,55.21614528624271,10.6865503668605,5853,Svindinge Friskole,Grundskoler,Friskoler og private grundskoler,"(55.21614528624271, 10.6865503668605)"
669,497001,7.6,7.0,430,55.30568114639011,10.4736823351803,5792,Broskolen,Grundskoler,Folkeskoler,"(55.30568114639011, 10.4736823351803)"
670,497002,7.0,6.8,430,55.301807651665,10.4011516704317,5792,Carl Nielsen-Skolen,Grundskoler,Folkeskoler,"(55.301807651665, 10.4011516704317)"
671,497005,7.4,7.3,430,55.31014253083429,10.5902125445821,5863,Ferritslev Friskole,Grundskoler,Friskoler og private grundskoler,"(55.31014253083429, 10.5902125445821)"
672,497006,8.2,8.0,430,55.3031637083095,10.3892728272703,5792,Nr Lyndelse Friskole,Grundskoler,Friskoler og private grundskoler,"(55.3031637083095, 10.3892728272703)"
673,497007,8.9,8.6,430,55.30939615,10.49965282,5792,Sdr. Nærå Friskole og Midtfyns Efterskole,Grundskoler,Friskoler og private grundskoler,"(55.30939615, 10.49965282)"
674,497300,5.2,5.8,430,55.30939614691529,10.4996528238657,5792,Sdr. Nærå Friskole og Midtfyns Efterskole,Efterskoler,Efterskoler,"(55.30939614691529, 10.4996528238657)"
675,499004,7.4,7.1,420,55.3744728802876,10.046281447666301,5560,Aarupskolen,Grundskoler,Folkeskoler,"(55.3744728802876, 10.046281447666301)"
676,499005,7.9,7.6,420,55.3427641189171,10.096108936826699,5560,Frøbjerg-Orte Friskole,Grundskoler,Friskoler og private grundskoler,"(55.3427641189171, 10.096108936826699)"
677,501001,6.4,6.4,540,54.9470904863919,9.872008979080269,6440,Augustenborg Skole,Grundskoler,Folkeskoler,"(54.9470904863919, 9.872008979080269)"
678,503301,6.2,6.6,580,54.842040381908205,9.329011581327359,6330,Frøslevlejrens Efterskole,Efterskoler,Efterskoler,"(54.842040381908205, 9.329011581327359)"
679,507001,7.4,7.1,540,54.8875874442155,9.66994222120193,6310,Broager Skole,Grundskoler,Folkeskoler,"(54.8875874442155, 9.66994222120193)"
680,507301,5.2,5.7,540,54.86296044709821,9.72103503159891,6310,Adventure Efterskolen Sønderjylland Skelde,Efterskoler,Efterskoler,"(54.86296044709821, 9.72103503159891)"
681,509011,6.4,6.5,621,55.361538731496104,9.532619085990289,6070,Aller Friskole,Grundskoler,Friskoler og private grundskoler,"(55.361538731496104, 9.532619085990289)"
682,509013,7.2,6.8,621,55.354696635980304,9.4859702041471,6070,Christiansfeld Skole,Grundskoler,Folkeskoler,"(55.354696635980304, 9.4859702041471)"
683,509300,5.7,6.4,621,55.4071110231004,9.550679830033712,6093,Design- & Idrætsefterskolen Skamling,Efterskoler,Efterskoler,"(55.4071110231004, 9.550679830033712)"
685,511300,3.8,4.9,510,55.2899824290488,9.05099636003524,6510,Gram Efterskole,Efterskoler,Efterskoler,"(55.2899824290488, 9.05099636003524)"
